road,km,type,LRPName,name,length,condition,structureNr,roadName,chainage,width,constructionYear,spans,zone,circle,division,sub-division,lat,lon,EstimatedLoc,cleaned_name,LR_indicator,is_on_land,is_connected_to_road
N1,1.8,Box Culvert,LRP001a,.,11.3,A,117861,Dhaka (Jatrabari)-Comilla (Mainamati)-Chittagong-Teknaf Road,1.8,19.5,2005.0,2.0,Dhaka,Dhaka,Narayanganj,Narayanganj-1,23.7028888888888,90.4503888888889,bcs1,,,True,True
N1,4.925,Box Culvert,LRP004b,.,6.6,A,117862,Dhaka (Jatrabari)-Comilla (Mainamati)-Chittagong-Teknaf Road,4.925,35.4,2006.0,1.0,Dhaka,Dhaka,Narayanganj,Narayanganj-1,23.6936111111111,90.4788333333333,bcs1,,,True,True
N1,10.88,Box Culvert,LRP010b,NOYAPARA CULVERT,6.3,A,112531,Dhaka (Jatrabari)-Comilla (Mainamati)-Chittagong-Teknaf Road,10.88,12.2,1992.0,2.0,Dhaka,Dhaka,Narayanganj,Vitikandi,23.6998333333333,90.5307222222222,bcs1,NOYAPARA CULVERT,,True,True
N1,11.296,Box Culvert,LRP011a,NAYABARI KASPUR BOX CULVERT,8.3,A,101110,Dhaka (Jatrabari)-Comilla (Mainamati)-Chittagong-Teknaf Road,11.296,21.45,1986.0,2.0,Dhaka,Dhaka,Narayanganj,Vitikandi,23.6973611111111,90.5338333333333,bcs1,NAYABARI KASPUR BOX CULVERT,,True,True
N1,12.239,Box Culvert,LRP012a,KHAS PARA BOX CULVERT,9.3,A,101117,Dhaka (Jatrabari)-Comilla (Mainamati)-Chittagong-Teknaf Road,12.239,21.0,1986.0,2.0,Dhaka,Dhaka,Narayanganj,Vitikandi,23.6923333333333,90.541,bcs1,KHAS PARA BOX CULVERT,,True,True
N1,12.66,PC Girder Bridge,LRP013a,Madanpur Bridge.(L),27.5,A,119897,Dhaka (Jatrabari)-Comilla (Mainamati)-Chittagong-Teknaf Road,12.66,22.4,2003.0,2.0,Dhaka,Dhaka,Narayanganj,Vitikandi,23.6854997,90.5512778,road_precise,MADANPUR BRIDGE,L,True,True
N1,12.66,PC Girder Bridge,LRP013a,MADAN PUR (R),26.3,A,109841,Dhaka (Jatrabari)-Comilla (Mainamati)-Chittagong-Teknaf Road,12.66,9.2,2003.0,1.0,Dhaka,Dhaka,Narayanganj,Vitikandi,23.6911111111111,90.5448888888888,bcs1,MADAN PUR,R,True,True
N1,17.222,PC Girder Bridge,LRP018b,Darikandi Bridge (R),20.45,A,119926,Dhaka (Jatrabari)-Comilla (Mainamati)-Chittagong-Teknaf Road,17.222,9.25,2001.0,1.0,Dhaka,Dhaka,Narayanganj,Vitikandi,23.6506944,90.5829993,road_precise,DARIKANDI BRIDGE,R,True,True
N1,21.184,PC Girder Bridge,LRP021c,MARIKHALL BRIDGE,89.2,A,101103,Dhaka (Jatrabari)-Comilla (Mainamati)-Chittagong-Teknaf Road,21.184,9.2,2000.0,3.0,Dhaka,Dhaka,Narayanganj,Vitikandi,23.6341666666666,90.5968888888888,bcs1,MARIKHALL BRIDGE,,True,True
N1,22.596,PC Girder Bridge,LRP023a,ASHIR CHAR (Right),224.8,A,109820,Dhaka (Jatrabari)-Comilla (Mainamati)-Chittagong-Teknaf Road,22.596,9.15,2004.0,9.0,Dhaka,Dhaka,Narayanganj,Vitikandi,23.6242777777777,90.6054722222222,bcs1,ASHIR CHAR,R,True,True
N1,23.081,PC Girder Bridge,LRP023c,ASHARIR CHAR (L),120.1,A,109796,Dhaka (Jatrabari)-Comilla (Mainamati)-Chittagong-Teknaf Road,23.081,9.5,2000.0,4.0,Dhaka,Dhaka,Narayanganj,Vitikandi,23.6205277777777,90.6079166666666,bcs1,ASHARIR CHAR,L,True,True
N1,26.452,Box Culvert,LRP026b,BAILAKANDI CULVERT,5.5,A,101142,Dhaka (Jatrabari)-Comilla (Mainamati)-Chittagong-Teknaf Road,26.452,20.9,1989.0,1.0,Dhaka,Dhaka,Narayanganj,Vitikandi,23.5961666666666,90.6246944444444,bcs1,BAILAKANDI CULVERT,,True,True
N1,27.12,Box Culvert,LRP027a,MALUAKANDI CULVEDRT,5.6,A,101150,Dhaka (Jatrabari)-Comilla (Mainamati)-Chittagong-Teknaf Road,27.12,21.0,1989.0,1.0,Dhaka,Dhaka,Narayanganj,Vitikandi,23.5917499999999,90.6293333333333,bcs1,MALUAKANDI CULVEDRT,,True,True
N1,28.315,PC Girder Bridge,LRP028b,Bhater char Bridge (L),172.1,A,119976,Dhaka (Jatrabari)-Comilla (Mainamati)-Chittagong-Teknaf Road,28.315,9.3,2004.0,1.0,Dhaka,Dhaka,Narayanganj,Vitikandi,23.577916,90.6419719,road_precise,BHATER CHAR BRIDGE,L,True,True
N1,29.138,PC Girder Bridge,LRP029a,Anarpara Bridge (L),29.85,A,119977,Dhaka (Jatrabari)-Comilla (Mainamati)-Chittagong-Teknaf Road,29.138,21.0,1992.0,7.0,Dhaka,Dhaka,Narayanganj,Vitikandi,23.572166,90.6451108,road_precise,ANARPARA BRIDGE,L,True,True
N1,30.908,PC Girder Bridge,LRP031a,Alipur bridge(R),27.4,A,120009,Dhaka (Jatrabari)-Comilla (Mainamati)-Chittagong-Teknaf Road,30.908,7.3,1997.0,2.0,Dhaka,Dhaka,Narayanganj,Vitikandi,23.5590278,90.6559444,road_precise,ALIPUR BRIDGE,R,True,True
N1,30.908,PC Girder Bridge,LRP031a,ALI PURA P.C BRIDGE (RIGHT),26.3,A,101120,Dhaka (Jatrabari)-Comilla (Mainamati)-Chittagong-Teknaf Road,30.908,9.2,2004.0,1.0,Dhaka,Dhaka,Narayanganj,Vitikandi,23.5639444444444,90.6499444444444,bcs1,ALI PURA PC BRIDGE,R,True,True
N1,31.472,PC Girder Bridge,LRP032a,Bhaber char Bridge(R),29.85,A,120017,Dhaka (Jatrabari)-Comilla (Mainamati)-Chittagong-Teknaf Road,31.472,12.2,1992.0,2.0,Dhaka,Dhaka,Narayanganj,Vitikandi,23.5523333,90.6636667,road_precise,BHABER CHAR BRIDGE,R,True,True
N1,31.472,PC Girder Bridge,LRP032a,VOBAR CHAR (L),29.0,A,109831,Dhaka (Jatrabari)-Comilla (Mainamati)-Chittagong-Teknaf Road,31.472,9.2,2003.0,1.0,Dhaka,Dhaka,Narayanganj,Vitikandi,23.5605,90.6541944444444,bcs1,VOBAR CHAR,L,True,True
N1,32.121,PC Girder Bridge,LRP032d,BOBARCHAR BRIDGE(L),28.9,A,109825,Dhaka (Jatrabari)-Comilla (Mainamati)-Chittagong-Teknaf Road,32.121,9.2,2004.0,1.0,Dhaka,Dhaka,Narayanganj,Vitikandi,23.5564722222222,90.6588611111111,bcs1,BOBARCHAR BRIDGE,L,True,True
N1,33.591,PC Girder Bridge,LRP034a,Madhya Baushia Bridge(L),72.49,A,120028,Dhaka (Jatrabari)-Comilla (Mainamati)-Chittagong-Teknaf Road,33.591,9.15,2000.0,2.0,Dhaka,Dhaka,Narayanganj,Vitikandi,23.5473611111111,90.6695,bcs1,MADHYA BAUSHIA BRIDGE,L,True,True
N1,35.181,Box Culvert,LRP035a,.,9.5,A,117863,Dhaka (Jatrabari)-Comilla (Mainamati)-Chittagong-Teknaf Road,35.181,21.2,2000.0,2.0,Dhaka,Dhaka,Narayanganj,Vitikandi,23.5342222222222,90.6843333333333,bcs1,,R,True,True
N1,35.408,PC Girder Bridge,LRP036a,Baushia bazar Bridge( L ),25.45,A,120030,Dhaka (Jatrabari)-Comilla (Mainamati)-Chittagong-Teknaf Road,35.408,9.2,1995.0,17.0,Dhaka,Dhaka,Narayanganj,Vitikandi,23.529916,90.6952219,road_precise,BAUSHIA BAZAR BRIDGE,L,True,True
N1,50.558,Box Culvert,LRP051a,RAIPUR BOX CULVERT,12.2,A,101147,Dhaka (Jatrabari)-Comilla (Mainamati)-Chittagong-Teknaf Road,50.558,11.6,1988.0,2.0,Comilla,Comilla,Comilla,Gouripur,23.5347222222222,90.825,bcs1,RAIPUR BOX CULVERT,,True,True
N1,63.538,Box Culvert,LRP064c,SONAPUR BOX CULVERT,3.0,A,101169,Dhaka (Jatrabari)-Comilla (Mainamati)-Chittagong-Teknaf Road,63.538,12.4,1992.0,1.0,Comilla,Comilla,Comilla,Gouripur,23.5023888888888,90.9420277777777,bcs1,SONAPUR BOX CULVERT,,True,True
N1,68.04,Box Culvert,LRP068a,MILL GHAT BOX CULVERT,4.5,A,101175,Dhaka (Jatrabari)-Comilla (Mainamati)-Chittagong-Teknaf Road,68.04,8.3,1991.0,1.0,Comilla,Comilla,Comilla,Gouripur,23.4951944444444,90.983,bcs1,MILL GHAT BOX CULVERT,,True,True
N1,76.481,Slab Culvert,LRP077a,NIMSHAR SLAB CULVERT,1.5,A,101189,Dhaka (Jatrabari)-Comilla (Mainamati)-Chittagong-Teknaf Road,76.481,12.3,1999.0,1.0,Comilla,Comilla,Comilla,Gouripur,23.4815277777777,91.0617777777777,bcs1,NIMSHAR SLAB CULVERT,,True,True
N1,82.437,Box Culvert,LRP083a,TIPRA BAZAR BOX CULVERT,1.4,A,101200,Dhaka (Jatrabari)-Comilla (Mainamati)-Chittagong-Teknaf Road,82.437,12.2,1993.0,1.0,Comilla,Comilla,Comilla,Gouripur,23.4788333333333,91.1177499999999,bcs1,TIPRA BAZAR BOX CULVERT,,True,True
N1,82.989,Slab Culvert,LRP083b,AMTOLI SLAB CULVERT,2.9,A,101202,Dhaka (Jatrabari)-Comilla (Mainamati)-Chittagong-Teknaf Road,82.989,12.0,1985.0,1.0,Comilla,Comilla,Comilla,Comilla,23.4792777777777,91.1234999999999,bcs1,AMTOLI SLAB CULVERT,,True,True
N1,87.713,RCC Girder Bridge,LRP088a,DHANPUR RCC GIDER BRIDGE,23.4,A,101205,Dhaka (Jatrabari)-Comilla (Mainamati)-Chittagong-Teknaf Road,87.713,9.2,1988.0,3.0,Comilla,Comilla,Comilla,Comilla,23.4489444444444,91.14725,bcs1,DHANPUR RCC GIDER BRIDGE,,True,True
N1,97.257,RCC Girder Bridge,LRP098a,RAZAPARA RCC GIDER BRIDGE,27.9,A,101218,Dhaka (Jatrabari)-Comilla (Mainamati)-Chittagong-Teknaf Road,97.257,9.2,1995.0,3.0,Comilla,Comilla,Comilla,Comilla,23.4037777777777,91.2175833333333,bcs1,RAZAPARA RCC GIDER BRIDGE,,True,True
N1,100.938,RCC Girder Bridge,LRP101a,SUAGAZI RCC GIDER BRIDGE,30.4,A,101220,Dhaka (Jatrabari)-Comilla (Mainamati)-Chittagong-Teknaf Road,100.938,9.2,1990.0,4.0,Comilla,Comilla,Comilla,Comilla,23.3784166666666,91.2398611111111,bcs1,SUAGAZI RCC GIDER BRIDGE,,True,True
N1,104.753,Box Culvert,LRP105a,CHANSIRI BOXCUIVERT,14.3,A,101225,Dhaka (Jatrabari)-Comilla (Mainamati)-Chittagong-Teknaf Road,104.753,8.5,1974.0,3.0,Comilla,Comilla,Comilla,Comilla,23.3488055555555,91.2599166666666,bcs1,CHANSIRI BOXCUIVERT,,True,True
N1,106.519,Box Culvert,LRP107a,MIABAZAR BOX CULVERT,24.0,A,101227,Dhaka (Jatrabari)-Comilla (Mainamati)-Chittagong-Teknaf Road,106.519,10.4,1974.0,5.0,Comilla,Comilla,Comilla,Comilla,23.336,91.2701111111111,bcs1,MIABAZAR BOX CULVERT,,True,True
N1,108.125,Box Culvert,LRP109a,NOYA BAZER BOX CULVERT,9.2,A,101230,Dhaka (Jatrabari)-Comilla (Mainamati)-Chittagong-Teknaf Road,108.125,11.5,1990.0,2.0,Comilla,Comilla,Comilla,Comilla,23.3241944444444,91.2790833333333,bcs1,NOYA BAZER BOX CULVERT,,True,True
N1,110.551,Box Culvert,LRP111a,LALGORE BEZER CULVERT,3.2,A,101135,Dhaka (Jatrabari)-Comilla (Mainamati)-Chittagong-Teknaf Road,110.551,12.2,1986.0,1.0,Comilla,Comilla,Comilla,Comilla,23.3039166666666,91.2887777777777,bcs1,LALGORE BEZER CULVERT,,True,True
N1,111.509,Box Culvert,LRP112a,SUPUYA BOX CULVERT,13.4,A,101138,Dhaka (Jatrabari)-Comilla (Mainamati)-Chittagong-Teknaf Road,111.509,8.4,1986.0,3.0,Comilla,Comilla,Comilla,Comilla,23.2960277777777,91.2915,bcs1,SUPUYA BOX CULVERT,,True,True
N1,117.627,Box Culvert,LRP118d,BALUZURI 2 CULVERT,2.6,A,101184,Dhaka (Jatrabari)-Comilla (Mainamati)-Chittagong-Teknaf Road,117.627,12.2,1984.0,1.0,Comilla,Comilla,Comilla,Comilla,23.2453611111111,91.3110555555555,bcs1,BALUZURI CULVERT,R,True,True
N1,118.049,Box Culvert,LRP119a,KALIR BAZAR BOX CULVERT,2.5,A,101185,Dhaka (Jatrabari)-Comilla (Mainamati)-Chittagong-Teknaf Road,118.049,12.2,1990.0,1.0,Comilla,Comilla,Comilla,Comilla,23.2417777777777,91.3123888888888,bcs1,KALIR BAZAR BOX CULVERT,,True,True
N1,119.628,Box Culvert,LRP120b,CHADDAGRAM BAZAR BOX CULVERT,6.0,A,101192,Dhaka (Jatrabari)-Comilla (Mainamati)-Chittagong-Teknaf Road,119.628,9.5,1984.0,1.0,Comilla,Comilla,Comilla,Comilla,23.2275833333333,91.3133611111111,bcs1,CHADDAGRAM BAZAR BOX CULVERT,,True,True
N1,121.567,Box Culvert,LRP122a,FALGUNCORA CULVERT,6.1,A,101198,Dhaka (Jatrabari)-Comilla (Mainamati)-Chittagong-Teknaf Road,121.567,11.85,1984.0,1.0,Comilla,Comilla,Comilla,Comilla,23.2103888888888,91.3156944444444,bcs1,FALGUNCORA CULVERT,,True,True
N1,122.603,Box Culvert,LRP123a,ATTOCK GRAM BOX CULVERT,6.1,A,101201,Dhaka (Jatrabari)-Comilla (Mainamati)-Chittagong-Teknaf Road,122.603,12.0,1984.0,1.0,Comilla,Comilla,Comilla,Comilla,23.2010833333333,91.31675,bcs1,ATTOCK GRAM BOX CULVERT,,True,True
N1,126.448,Box Culvert,LRP127a,ANDAJER BAZER BOX CULVERT,9.5,A,101214,Dhaka (Jatrabari)-Comilla (Mainamati)-Chittagong-Teknaf Road,126.448,10.5,1992.0,2.0,Comilla,Comilla,Comilla,Comilla,23.1681944444444,91.3214166666666,bcs1,ANDAJER BAZER BOX CULVERT,,True,True
N1,130.912,Box Culvert,LRP131b,HASO BOTHACH BOX CULVERT,6.5,A,101229,Dhaka (Jatrabari)-Comilla (Mainamati)-Chittagong-Teknaf Road,130.912,12.2,1984.0,1.0,Comilla,Comilla,Comilla,Comilla,23.1291111111111,91.3286666666666,bcs1,HASO BOTHACH BOX CULVERT,,True,True
N1,133.155,Box Culvert,LRP134a,Chanara Box Culvert,6.1,A,101167,Dhaka (Jatrabari)-Comilla (Mainamati)-Chittagong-Teknaf Road,133.155,9.5,1984.0,1.0,Comilla,Comilla,Comilla,Comilla,23.1108333333333,91.3381944444444,bcs1,CHANARA BOX CULVERT,,True,True
N1,134.974,Box Culvert,LRP136a,PODOYA BOX CULVERT,3.1,A,101193,Dhaka (Jatrabari)-Comilla (Mainamati)-Chittagong-Teknaf Road,134.974,12.3,1984.0,1.0,Comilla,Comilla,Comilla,Comilla,23.0962777777777,91.3461111111111,bcs1,PODOYA BOX CULVERT,,True,True
N1,136.375,Box Culvert,LRP137a,UTTOR KAIEATI CULVERT,3.5,A,101204,Dhaka (Jatrabari)-Comilla (Mainamati)-Chittagong-Teknaf Road,136.375,12.2,1994.0,1.0,Comilla,Comilla,Comilla,Comilla,23.0850555555555,91.3524166666666,bcs1,UTTOR KAIEATI CULVERT,,True,True
N1,141.531,Box Culvert,LRP142a,FATAPUR BOX CULVERT,10.8,A,101226,Dhaka (Jatrabari)-Comilla (Mainamati)-Chittagong-Teknaf Road,141.531,15.9,1999.0,2.0,Comilla,Noakhali,Feni,Feni-1,23.0423333333333,91.3654444444444,bcs1,FATAPUR BOX CULVERT,,True,True
N1,142.793,Slab Culvert,LRP143a,DEBIPUR SLAB CULVERT,1.6,A,101228,Dhaka (Jatrabari)-Comilla (Mainamati)-Chittagong-Teknaf Road,142.793,12.5,1970.0,1.0,Comilla,Noakhali,Feni,Feni-1,23.0295555555555,91.3655833333333,bcs1,DEBIPUR SLAB CULVERT,,True,True
N1,144.939,Box Culvert,LRP145a,CHARIPUR CULVERT.,3.4,A,101232,Dhaka (Jatrabari)-Comilla (Mainamati)-Chittagong-Teknaf Road,144.939,13.8,1981.0,1.0,Comilla,Noakhali,Feni,Feni-1,23.01425,91.3759722222222,bcs1,CHARIPUR CULVERT,,True,True
N1,148.151,RCC Girder Bridge,LRP149a,RAMPUR BRIDGE,23.4,A,101234,Dhaka (Jatrabari)-Comilla (Mainamati)-Chittagong-Teknaf Road,148.151,12.4,1986.0,3.0,Comilla,Noakhali,Feni,Feni-1,22.9961666666666,91.4004166666666,bcs1,RAMPUR BRIDGE,,True,True
N1,158.031,Box Culvert,LRP159a,FAZAILPUR BOXCULVERT,1.5,A,101241,Dhaka (Jatrabari)-Comilla (Mainamati)-Chittagong-Teknaf Road,158.031,10.3,1984.0,1.0,Comilla,Noakhali,Feni,Feni-1,22.9484444444444,91.4781388888888,bcs1,FAZAILPUR BOXCULVERT,,True,True
N1,165.183,PC Girder Bridge,LRP166a,DumGhat Bridge(L),222.43,A,121146,Dhaka (Jatrabari)-Comilla (Mainamati)-Chittagong-Teknaf Road,165.183,11.12,1974.0,7.0,Comilla,Noakhali,Feni,Feni-1,22.9155555555555,91.5252777777777,bcs1,DUMGHAT BRIDGE,L,True,True
N1,166.479,Slab Culvert,LRP167a,BOROYAR PARA SLUB CULVERT,3.0,A,101278,Dhaka (Jatrabari)-Comilla (Mainamati)-Chittagong-Teknaf Road,166.479,12.4,1999.0,1.0,Comilla,Noakhali,Feni,Feni-1,22.9050277777777,91.5312222222222,bcs1,BOROYAR PARA SLUB CULVERT,,True,True
N1,167.963,Box Culvert,LRP169a,BAROYARHAT BOX CULVERT,3.0,A,101236,Dhaka (Jatrabari)-Comilla (Mainamati)-Chittagong-Teknaf Road,167.963,12.5,1990.0,1.0,Comilla,Noakhali,Feni,Feni-1,22.8922777777777,91.5353055555555,bcs1,BAROYARHAT BOX CULVERT,,True,True
N1,169.933,Box Culvert,LRP171a,UTTOR SONAPAR BOX CULVERT,4.3,A,101239,Dhaka (Jatrabari)-Comilla (Mainamati)-Chittagong-Teknaf Road,169.933,12.5,1991.0,2.0,Comilla,Noakhali,Feni,Feni-1,22.8751944444444,91.5406666666666,bcs1,UTTOR SONAPAR BOX CULVERT,,True,True
N1,170.174,Box Culvert,LRP171b,CHAIRMEN BARI BOX CULVERT,2.0,A,101240,Dhaka (Jatrabari)-Comilla (Mainamati)-Chittagong-Teknaf Road,170.174,10.3,1985.0,1.0,Chittagong,Chittagong,Chittagong,Sitakunda,22.8731666666666,91.5414166666666,bcs1,CHAIRMEN BARI BOX CULVERT,,True,True
N1,170.725,Box Culvert,LRP171c,MADDAM SONAPAR(1) BOX CULVERT,1.5,A,101242,Dhaka (Jatrabari)-Comilla (Mainamati)-Chittagong-Teknaf Road,170.725,12.5,1988.0,1.0,Chittagong,Chittagong,Chittagong,Sitakunda,22.8684166666666,91.5431111111111,bcs1,MADDAM SONAPAR BOX CULVERT,L,True,True
N1,172.122,Box Culvert,LRP173a,MAMAFOUN ASTANA CULVERT,1.5,A,101243,Dhaka (Jatrabari)-Comilla (Mainamati)-Chittagong-Teknaf Road,172.122,12.5,1988.0,1.0,Chittagong,Chittagong,Chittagong,Sitakunda,22.8561666666666,91.5456944444444,bcs1,MAMAFOUN ASTANA CULVERT,,True,True
N1,172.23,Slab Culvert,LRP173b,MAMAFAKIR ASTANA SLAB CULVERT,1.5,A,101244,Dhaka (Jatrabari)-Comilla (Mainamati)-Chittagong-Teknaf Road,172.23,12.5,1993.0,1.0,Chittagong,Chittagong,Chittagong,Sitakunda,22.8551388888888,91.54575,bcs1,MAMAFAKIR ASTANA SLAB CULVERT,,True,True
N1,172.969,Box Culvert,LRP174a,MASTANNAGOR BONCUL(1),8.5,A,101249,Dhaka (Jatrabari)-Comilla (Mainamati)-Chittagong-Teknaf Road,172.969,12.4,1996.0,2.0,Chittagong,Chittagong,Chittagong,Sitakunda,22.8485555555555,91.5463333333333,bcs1,MASTANNAGOR BONCUL,L,True,True
N1,173.35,Box Culvert,LRP174b,MUSTAU NOGAR(2),3.0,A,101251,Dhaka (Jatrabari)-Comilla (Mainamati)-Chittagong-Teknaf Road,173.35,12.5,1993.0,1.0,Chittagong,Chittagong,Chittagong,Sitakunda,22.84525,91.5474722222222,bcs1,MUSTAU NOGAR,R,True,True
N1,173.585,Box Culvert,LRP174c,MASTARI HAGOR 3 CULVERT,1.5,A,100547,Dhaka (Jatrabari)-Comilla (Mainamati)-Chittagong-Teknaf Road,173.585,12.5,1992.0,1.0,Chittagong,Chittagong,Chittagong,Sitakunda,22.8432777777777,91.5481666666666,bcs1,MASTARI HAGOR 3 CULVERT,,True,True
N1,173.859,Box Culvert,LRP175a,MUSTAN NAGAR -4,3.0,A,100552,Dhaka (Jatrabari)-Comilla (Mainamati)-Chittagong-Teknaf Road,173.859,12.5,1992.0,1.0,Chittagong,Chittagong,Chittagong,Sitakunda,22.8409166666666,91.5488888888888,bcs1,MUSTAN NAGAR -4,,True,True
N1,179.363,Box Culvert,LRP181a,MIRSARAI BOX CUL,4.5,A,100557,Dhaka (Jatrabari)-Comilla (Mainamati)-Chittagong-Teknaf Road,179.363,12.2,1988.0,1.0,Chittagong,Chittagong,Chittagong,Sitakunda,22.7934444444444,91.5632222222222,bcs1,MIRSARAI BOX CUL,,True,True
N1,181.825,Box Culvert,LRP183b,Mirsorai(2) box culvert,6.0,A,100576,Dhaka (Jatrabari)-Comilla (Mainamati)-Chittagong-Teknaf Road,181.825,12.1,1985.0,1.0,Chittagong,Chittagong,Chittagong,Sitakunda,22.7733055555555,91.5733055555555,bcs1,MIRSORAI BOX CULVERT,R,True,True
N1,182.318,Box Culvert,LRP184a,IANAINIPOL BOX CULVERT.,9.7,A,100560,Dhaka (Jatrabari)-Comilla (Mainamati)-Chittagong-Teknaf Road,182.318,11.0,1989.0,2.0,Chittagong,Chittagong,Chittagong,Sitakunda,22.7693888888888,91.5755277777777,bcs1,IANAINIPOL BOX CULVERT,,True,True
N1,183.296,Box Culvert,LRP185a,BOKIMTOLA BOX CULVERT,4.0,A,100575,Dhaka (Jatrabari)-Comilla (Mainamati)-Chittagong-Teknaf Road,183.296,12.8,1992.0,1.0,Chittagong,Chittagong,Chittagong,Sitakunda,22.7622222222222,91.5810555555555,bcs1,BOKIMTOLA BOX CULVERT,,True,True
N1,184.654,Box Culvert,LRP186a,VARTAKA BOX CULVERT,12.9,A,100545,Dhaka (Jatrabari)-Comilla (Mainamati)-Chittagong-Teknaf Road,184.654,12.7,1999.0,2.0,Chittagong,Chittagong,Chittagong,Sitakunda,22.7526666666666,91.5892777777777,bcs1,VARTAKA BOX CULVERT,,True,True
N1,185.058,Box Culvert,LRP187a,VARTAGIA BOX CULVERT,3.0,A,100546,Dhaka (Jatrabari)-Comilla (Mainamati)-Chittagong-Teknaf Road,185.058,12.45,1992.0,1.0,Chittagong,Chittagong,Chittagong,Sitakunda,22.7496944444444,91.5915555555555,bcs1,VARTAGIA BOX CULVERT,,True,True
N1,188.35,Box Culvert,LRP190a,NIAZAMPUR BOX CULVERT,3.0,A,100549,Dhaka (Jatrabari)-Comilla (Mainamati)-Chittagong-Teknaf Road,188.35,12.2,1988.0,1.0,Chittagong,Chittagong,Chittagong,Sitakunda,22.7221111111111,91.603,bcs1,NIAZAMPUR BOX CULVERT,,True,True
N1,189.058,Box Culvert,LRP191a,MIRJAPUR BOX CULVERT,3.0,A,100551,Dhaka (Jatrabari)-Comilla (Mainamati)-Chittagong-Teknaf Road,189.058,12.2,1985.0,1.0,Chittagong,Chittagong,Chittagong,Sitakunda,22.7165277777777,91.6064444444444,bcs1,MIRJAPUR BOX CULVERT,R,True,True
N1,191.107,Box Culvert,LRP193a,DUKHIN UTHPAR BOX CULVERT,19.2,A,100556,Dhaka (Jatrabari)-Comilla (Mainamati)-Chittagong-Teknaf Road,191.107,12.2,1986.0,4.0,Chittagong,Chittagong,Chittagong,Sitakunda,22.7001944444444,91.6154166666666,bcs1,DUKHIN UTHPAR BOX CULVERT,,True,True
N1,192.408,Box Culvert,LRP194a,VANGGARPOL BOX CULVERT,4.2,A,100558,Dhaka (Jatrabari)-Comilla (Mainamati)-Chittagong-Teknaf Road,192.408,12.2,1993.0,1.0,Chittagong,Chittagong,Chittagong,Sitakunda,22.6895555555555,91.6208055555555,bcs1,VANGGARPOL BOX CULVERT,,True,True
N1,192.95,Box Culvert,LRP195a,BORO KAMALDA BOX CULVERT,3.2,A,100561,Dhaka (Jatrabari)-Comilla (Mainamati)-Chittagong-Teknaf Road,192.95,12.2,1984.0,1.0,Chittagong,Chittagong,Chittagong,Sitakunda,22.6850833333333,91.6228055555555,bcs1,BORO KAMALDA BOX CULVERT,,True,True
N1,194.149,Box Culvert,LRP196a,TARAT BOX CULVERT,6.0,A,100562,Dhaka (Jatrabari)-Comilla (Mainamati)-Chittagong-Teknaf Road,194.149,12.1,1990.0,1.0,Chittagong,Chittagong,Chittagong,Sitakunda,22.6751666666666,91.6274166666666,bcs1,TARAT BOX CULVERT,,True,True
N1,194.998,Box Culvert,LRP197a,Tarial Bazar Culvert,3.0,A,100563,Dhaka (Jatrabari)-Comilla (Mainamati)-Chittagong-Teknaf Road,194.998,12.2,1990.0,1.0,Chittagong,Chittagong,Chittagong,Sitakunda,22.6679166666666,91.6300555555555,bcs1,TARIAL BAZAR CULVERT,,True,True
N1,195.501,Box Culvert,LRP197b,MIRJA PUR (3) BOX CULVERT,3.0,A,100564,Dhaka (Jatrabari)-Comilla (Mainamati)-Chittagong-Teknaf Road,195.501,12.1,1984.0,1.0,Chittagong,Chittagong,Chittagong,Sitakunda,22.6637222222222,91.6320833333333,bcs1,MIRJA PUR BOX CULVERT,,True,True
N1,196.038,Box Culvert,LRP198a,SATU DURUAR HAT BOX CULVERT,3.0,A,100565,Dhaka (Jatrabari)-Comilla (Mainamati)-Chittagong-Teknaf Road,196.038,12.2,1986.0,1.0,Chittagong,Chittagong,Chittagong,Sitakunda,22.6597777777777,91.6349444444444,bcs1,SATU DURUAR HAT BOX CULVERT,,True,True
N1,196.925,Box Culvert,LRP199a,RONA SORA CULVERT,3.1,A,100566,Dhaka (Jatrabari)-Comilla (Mainamati)-Chittagong-Teknaf Road,196.925,12.2,1984.0,1.0,Chittagong,Chittagong,Chittagong,Sitakunda,22.6527777777777,91.6390555555555,bcs1,RONA SORA CULVERT,,True,True
N1,197.39,Box Culvert,LRP199b,NUNA CHARA BOX CULVERT,4.6,A,100567,Dhaka (Jatrabari)-Comilla (Mainamati)-Chittagong-Teknaf Road,197.39,12.1,1989.0,1.0,Chittagong,Chittagong,Chittagong,Sitakunda,22.6489722222222,91.641,bcs1,NUNA CHARA BOX CULVERT,,True,True
N1,197.846,Box Culvert,LRP199c,BOTTOL BOX CULVERT,12.4,A,100569,Dhaka (Jatrabari)-Comilla (Mainamati)-Chittagong-Teknaf Road,197.846,12.1,1992.0,2.0,Chittagong,Chittagong,Chittagong,Sitakunda,22.6453333333333,91.6429722222222,bcs1,BOTTOL BOX CULVERT,,True,True
N1,199.279,Box Culvert,LRP201a,KACHAI PATH BOX CULVERT,3.0,A,100568,Dhaka (Jatrabari)-Comilla (Mainamati)-Chittagong-Teknaf Road,199.279,12.1,2003.0,1.0,Chittagong,Chittagong,Chittagong,Sitakunda,22.6338888888888,91.6493611111111,bcs1,KACHAI PATH BOX CULVERT,,True,True
N1,199.502,Box Culvert,LRP201b,KACHAI POTTI BOX CULVERT,3.0,A,100570,Dhaka (Jatrabari)-Comilla (Mainamati)-Chittagong-Teknaf Road,199.502,12.1,1999.0,1.0,Chittagong,Chittagong,Chittagong,Sitakunda,22.6320277777777,91.6502777777777,bcs1,KACHAI POTTI BOX CULVERT,,True,True
N1,200.277,Box Culvert,LRP202a,EGOL PUR BOX CULVERT,3.0,A,100572,Dhaka (Jatrabari)-Comilla (Mainamati)-Chittagong-Teknaf Road,200.277,12.13,1985.0,1.0,Chittagong,Chittagong,Chittagong,Sitakunda,22.6259166666666,91.654,bcs1,EGOL PUR BOX CULVERT,,True,True
N1,200.918,Slab Culvert,LRP203a,SITAKUNDA SLAB,3.0,A,100573,Dhaka (Jatrabari)-Comilla (Mainamati)-Chittagong-Teknaf Road,200.918,12.2,1983.0,1.0,Chittagong,Chittagong,Chittagong,Sitakunda,22.6208611111111,91.6569722222222,bcs1,SITAKUNDA SLAB,,True,True
N1,201.52,Box Culvert,LRP203b,MOHADAB PUR BOX CULVERT,3.0,A,100577,Dhaka (Jatrabari)-Comilla (Mainamati)-Chittagong-Teknaf Road,201.52,12.1,1989.0,1.0,Chittagong,Chittagong,Chittagong,Sitakunda,22.6161944444444,91.6599722222222,bcs1,MOHADAB PUR BOX CULVERT,,True,True
N1,201.999,Slab Culvert,LRP204a,PURBOMOHADAB PUR SLAB CULVERT(L),4.6,A,100609,Dhaka (Jatrabari)-Comilla (Mainamati)-Chittagong-Teknaf Road,201.999,12.2,1980.0,1.0,Chittagong,Chittagong,Chittagong,Sitakunda,22.6123611111111,91.6621666666666,bcs1,PURBOMOHADAB PUR SLAB CULVERT,L,True,True
N1,202.435,Box Culvert,LRP205a,MADICAL MORE CULVERT,3.0,A,100579,Dhaka (Jatrabari)-Comilla (Mainamati)-Chittagong-Teknaf Road,202.435,12.2,1986.0,1.0,Chittagong,Chittagong,Chittagong,Sitakunda,22.6088333333333,91.6640555555555,bcs1,MADICAL MORE CULVERT,,True,True
N1,203.457,Box Culvert,LRP206a,DOKHIN MOHADEB PUR BOX CULVERT,2.95,A,100578,Dhaka (Jatrabari)-Comilla (Mainamati)-Chittagong-Teknaf Road,203.457,12.2,1985.0,1.0,Chittagong,Chittagong,Chittagong,Sitakunda,22.6009444444444,91.6693055555555,bcs1,DOKHIN MOHADEB PUR BOX CULVERT,,True,True
N1,204.765,Box Culvert,LRP207a,HATILOTA BOX CULVERT,4.5,A,100582,Dhaka (Jatrabari)-Comilla (Mainamati)-Chittagong-Teknaf Road,204.765,12.1,1989.0,1.0,Chittagong,Chittagong,Chittagong,Sitakunda,22.5905555555555,91.6754166666666,bcs1,HATILOTA BOX CULVERT,,True,True
N1,206.3,Box Culvert,LRP208d,BAROGINDO CULVERT,2.5,A,100585,Dhaka (Jatrabari)-Comilla (Mainamati)-Chittagong-Teknaf Road,206.3,12.2,1989.0,1.0,Chittagong,Chittagong,Chittagong,Sitakunda,22.5779722222222,91.6810833333333,bcs1,BAROGINDO CULVERT,,True,True
N1,206.866,Box Culvert,LRP209a,BARO-CUNDHOW BOX CULVERT,10.2,A,100586,Dhaka (Jatrabari)-Comilla (Mainamati)-Chittagong-Teknaf Road,206.866,12.3,1990.0,2.0,Chittagong,Chittagong,Chittagong,Sitakunda,22.5731944444444,91.6830555555555,bcs1,BARO-CUNDHOW BOX CULVERT,,True,True
N1,207.64,Box Culvert,LRP210a,PHPMORE BON CULVERT,3.0,A,100588,Dhaka (Jatrabari)-Comilla (Mainamati)-Chittagong-Teknaf Road,207.64,12.2,1988.0,1.0,Chittagong,Chittagong,Chittagong,Sitakunda,22.5667777777777,91.6851388888888,bcs1,PHPMORE BON CULVERT,,True,True
N1,207.913,Box Culvert,LRP210b,CHARA KANDI BOX CULVERT,8.2,A,100589,Dhaka (Jatrabari)-Comilla (Mainamati)-Chittagong-Teknaf Road,207.913,12.5,1985.0,2.0,Chittagong,Chittagong,Chittagong,Sitakunda,22.5640833333333,91.6858611111111,bcs1,CHARA KANDI BOX CULVERT,,True,True
N1,208.1,Box Culvert,LRP210d,R. R TEXTAIL BOX CULVERT,4.5,A,100590,Dhaka (Jatrabari)-Comilla (Mainamati)-Chittagong-Teknaf Road,208.1,12.2,1987.0,1.0,Chittagong,Chittagong,Chittagong,Sitakunda,22.5624722222222,91.6863055555555,bcs1,TEXTAIL BOX CULVERT,R,True,True
N1,210.476,Box Culvert,LRP213a,SOUTH BALSH KHALI BOX CULVERT,3.0,A,100592,Dhaka (Jatrabari)-Comilla (Mainamati)-Chittagong-Teknaf Road,210.476,12.2,1987.0,1.0,Chittagong,Chittagong,Chittagong,Sitakunda,22.5431111111111,91.69475,bcs1,SOUTH BALSH KHALI BOX CULVERT,,True,True
N1,211.433,Box Culvert,LRP214a,SOTTANA MONDIR CULVERT,8.2,A,100596,Dhaka (Jatrabari)-Comilla (Mainamati)-Chittagong-Teknaf Road,211.433,12.6,1986.0,2.0,Chittagong,Chittagong,Chittagong,Sitakunda,22.5347777777777,91.6982777777777,bcs1,SOTTANA MONDIR CULVERT,,True,True
N1,215.467,Box Culvert,LRP218a,ROYL CIMINT GATE CULVETRT,4.5,A,100601,Dhaka (Jatrabari)-Comilla (Mainamati)-Chittagong-Teknaf Road,215.467,12.1,1989.0,1.0,Chittagong,Chittagong,Chittagong,Sitakunda,22.5030833333333,91.7132222222222,bcs1,ROYL CIMINT GATE CULVETRT,,True,True
N1,216.196,RCC Girder Bridge,LRP218b,GORA MARA RCC GIRDER BRIDGE,17.6,A,100605,Dhaka (Jatrabari)-Comilla (Mainamati)-Chittagong-Teknaf Road,216.196,9.7,1989.0,1.0,Chittagong,Chittagong,Chittagong,Sitakunda,22.4961388888888,91.7159444444444,bcs1,GORA MARA RCC GIRDER BRIDGE,,True,True
N1,219.427,Box Culvert,LRP221a,HATIBORI BOX CULVERT,6.0,A,100610,Dhaka (Jatrabari)-Comilla (Mainamati)-Chittagong-Teknaf Road,219.427,12.1,1988.0,1.0,Chittagong,Chittagong,Chittagong,Sitakunda,22.4693888888888,91.7250555555555,bcs1,HATIBORI BOX CULVERT,,True,True
N1,223.743,Box Culvert,LRP226a,HASNA BAD BOX CULVERT,3.0,A,100614,Dhaka (Jatrabari)-Comilla (Mainamati)-Chittagong-Teknaf Road,223.743,12.2,1989.0,1.0,Chittagong,Chittagong,Chittagong,Sitakunda,22.4333055555555,91.7403055555555,bcs1,HASNA BAD BOX CULVERT,,True,True
N1,224.053,RCC Girder Bridge,LRP226b,VATERIE BRIDGE,40.0,A,100615,Dhaka (Jatrabari)-Comilla (Mainamati)-Chittagong-Teknaf Road,224.053,18.0,1995.0,3.0,Chittagong,Chittagong,Chittagong,Sitakunda,22.4307222222222,91.7414722222222,bcs1,VATERIE BRIDGE,,True,True
N1,228.029,Box Culvert,LRP230a,VATIARI CULVERT,5.0,A,100617,Dhaka (Jatrabari)-Comilla (Mainamati)-Chittagong-Teknaf Road,228.029,10.9,1996.0,1.0,Chittagong,Chittagong,Chittagong,Sitakunda,22.3978333333333,91.7576666666666,bcs1,VATIARI CULVERT,,True,True
N1,228.797,Box Culvert,LRP231a,T. B HOSPITAL GATE BOX CULVERT,3.0,A,100619,Dhaka (Jatrabari)-Comilla (Mainamati)-Chittagong-Teknaf Road,228.797,12.1,1984.0,1.0,Chittagong,Chittagong,Chittagong,Sitakunda,22.3920833333333,91.7592222222222,bcs1,T B HOSPITAL GATE BOX CULVERT,,True,True
N1,229.203,PC Girder Bridge,LRP231b,GAMMON BRIDGE,18.0,A,100618,Dhaka (Jatrabari)-Comilla (Mainamati)-Chittagong-Teknaf Road,229.203,20.2,1955.0,1.0,Chittagong,Chittagong,Chittagong,Sitakunda,22.3887777777777,91.7605833333333,bcs1,GAMMON BRIDGE,,True,True
N1,230.13,Box Culvert,LRP232a,PAKKA MATA BOX CULVERT,3.0,A,112543,Dhaka (Jatrabari)-Comilla (Mainamati)-Chittagong-Teknaf Road,230.13,12.2,1951.0,1.0,Chittagong,Chittagong,Chittagong,Sitakunda,22.3812777777777,91.7653888888888,bcs1,PAKKA MATA BOX CULVERT,,True,True
N1,230.921,Box Culvert,LRP233a,GLAXO BOX CULVERT,8.3,A,100620,Dhaka (Jatrabari)-Comilla (Mainamati)-Chittagong-Teknaf Road,230.921,12.8,1990.0,2.0,Chittagong,Chittagong,Chittagong,Sitakunda,22.3764166666666,91.7704166666666,bcs1,GLAXO BOX CULVERT,,True,True
N1,231.966,Box Culvert,LRP234a,CORNAIL HAT BOX CULVERT,3.0,A,100621,Dhaka (Jatrabari)-Comilla (Mainamati)-Chittagong-Teknaf Road,231.966,31.0,1993.0,1.0,Chittagong,Chittagong,Chittagong,Sitakunda,22.3694722222222,91.7772777777777,bcs1,CORNAIL HAT BOX CULVERT,,True,True
N1,244.975,RCC Girder Bridge,LRP240c,RAJAKHALI RCC GIDER BRIDGE,48.5,A,100632,Dhaka (Jatrabari)-Comilla (Mainamati)-Chittagong-Teknaf Road,244.975,9.2,1985.0,3.0,Chittagong,Chittagong,Chittagong,Chittagong,22.3374166666666,91.8542222222222,bcs1,RAJAKHALI RCC GIDER BRIDGE,,True,True
N1,249.04,Box Culvert,LRP244a,SOUTH MITTACHORI,3.0,A,112537,Dhaka (Jatrabari)-Comilla (Mainamati)-Chittagong-Teknaf Road,249.04,12.2,1968.0,1.0,Chittagong,Chittagong,Dohazari,Patiya,22.3042222222222,91.8621111111111,bcs1,SOUTH MITTACHORI,,True,True
N1,249.674,Box Culvert,LRP244c,KADUMTOLI CULVERT,3.0,A,112542,Dhaka (Jatrabari)-Comilla (Mainamati)-Chittagong-Teknaf Road,249.674,12.2,1972.0,1.0,Chittagong,Chittagong,Dohazari,Patiya,22.2997777777777,91.8655833333333,bcs1,KADUMTOLI CULVERT,,True,True
N1,250.215,Slab Culvert,LRP245a,ISLAMPUR CULVERT,1.5,A,112541,Dhaka (Jatrabari)-Comilla (Mainamati)-Chittagong-Teknaf Road,250.215,12.1,1993.0,1.0,Chittagong,Chittagong,Dohazari,Patiya,22.2950555555555,91.8673055555555,bcs1,ISLAMPUR CULVERT,,True,True
N1,250.519,Box Culvert,LRP245b,NOLBILA CULVERT,3.0,A,112538,Dhaka (Jatrabari)-Comilla (Mainamati)-Chittagong-Teknaf Road,250.519,12.2,1992.0,1.0,Chittagong,Chittagong,Dohazari,Patiya,22.2925555555555,91.8686388888888,bcs1,NOLBILA CULVERT,,True,True
N1,250.841,Box Culvert,LRP246a,SHIKALBAHA MORE,3.0,A,100638,Dhaka (Jatrabari)-Comilla (Mainamati)-Chittagong-Teknaf Road,250.841,13.4,1985.0,1.0,Chittagong,Chittagong,Dohazari,Patiya,22.29175,91.8711944444444,bcs1,SHIKALBAHA MORE,,True,True
N1,251.281,Box Culvert,LRP246b,SHIKALBAHA BOX CULVERT,3.0,A,100639,Dhaka (Jatrabari)-Comilla (Mainamati)-Chittagong-Teknaf Road,251.281,13.4,1995.0,1.0,Chittagong,Chittagong,Dohazari,Patiya,22.2937777777777,91.8748055555555,bcs1,SHIKALBAHA BOX CULVERT,,True,True
N1,251.538,PC Girder Bridge,LRP247a,Sikolbaha Bridge-1,116.13,A,121085,Dhaka (Jatrabari)-Comilla (Mainamati)-Chittagong-Teknaf Road,251.538,10.0,1996.0,3.0,Chittagong,Chittagong,Dohazari,Patiya,22.3427219,91.8531389,road_precise,SIKOLBAHA BRIDGE-,L,True,True
N1,254.333,Box Culvert,LRP250a,KUSUMPUR BOX CULVERT,3.0,A,100643,Dhaka (Jatrabari)-Comilla (Mainamati)-Chittagong-Teknaf Road,254.333,12.15,1987.0,1.0,Chittagong,Chittagong,Dohazari,Patiya,22.3031111111111,91.9026666666666,bcs1,KUSUMPUR BOX CULVERT,,True,True
N1,255.505,Box Culvert,LRP251a,tassi bazer(R),3.0,A,112540,Dhaka (Jatrabari)-Comilla (Mainamati)-Chittagong-Teknaf Road,255.505,10.2,2000.0,1.0,Chittagong,Chittagong,Dohazari,Patiya,22.3070833333333,91.9126111111111,bcs1,TASSI BAZER,R,True,True
N1,256.378,Box Culvert,LRP252a,MONSHA CULVERT,3.0,A,100647,Dhaka (Jatrabari)-Comilla (Mainamati)-Chittagong-Teknaf Road,256.378,12.2,1983.0,1.0,Chittagong,Chittagong,Dohazari,Patiya,22.3126111111111,91.9188333333333,bcs1,MONSHA CULVERT,,True,True
N1,256.89,Box Culvert,LRP252c,UTTOR SONAPUR,3.0,A,112539,Dhaka (Jatrabari)-Comilla (Mainamati)-Chittagong-Teknaf Road,256.89,10.3,1999.0,1.0,Chittagong,Chittagong,Dohazari,Patiya,22.3159722222222,91.9225555555555,bcs1,UTTOR SONAPUR,,True,True
N1,257.94,Steel Beam & RCC Slab,LRP253a,Pirol,5.3,A,100728,Dhaka (Jatrabari)-Comilla (Mainamati)-Chittagong-Teknaf Road,257.94,7.0,1966.0,1.0,Chittagong,Chittagong,Dohazari,Patiya,22.3136388888888,91.9321944444444,bcs1,PIROL,,True,True
N1,259.795,Box Culvert,LRP255a,UZIRPUR HIGH SCHOOL,3.0,A,100685,Dhaka (Jatrabari)-Comilla (Mainamati)-Chittagong-Teknaf Road,259.795,10.3,1974.0,1.0,Chittagong,Chittagong,Dohazari,Patiya,22.3099166666666,91.94775,bcs1,UZIRPUR HIGH SCHOOL,,True,True
N1,267.818,Box Culvert,LRP263b,KHORNA CULVERT,3.0,A,100650,Dhaka (Jatrabari)-Comilla (Mainamati)-Chittagong-Teknaf Road,267.818,12.2,1985.0,1.0,Chittagong,Chittagong,Dohazari,Patiya,22.2725277777777,92.0056944444444,bcs1,KHORNA CULVERT,,True,True
N1,269.721,Box Culvert,LRP265a,MOJAFFARABAD,9.2,A,100672,Dhaka (Jatrabari)-Comilla (Mainamati)-Chittagong-Teknaf Road,269.721,12.2,1992.0,2.0,Chittagong,Chittagong,Dohazari,Patiya,22.2558055555555,92.0094166666666,bcs1,MOJAFFARABAD,,True,True
N1,269.99,Box Culvert,LRP265b,MOJAFFORABAD BOX CULVERT,6.0,A,100653,Dhaka (Jatrabari)-Comilla (Mainamati)-Chittagong-Teknaf Road,269.99,12.2,1978.0,1.0,Chittagong,Chittagong,Dohazari,Patiya,22.2536111111111,92.0115277777777,bcs1,MOJAFFORABAD BOX CULVERT,,True,True
N1,270.642,Box Culvert,LRP267a,MOJAFFORABAD,9.4,A,100652,Dhaka (Jatrabari)-Comilla (Mainamati)-Chittagong-Teknaf Road,270.642,12.2,1986.0,3.0,Chittagong,Chittagong,Dohazari,Patiya,22.2494722222222,92.0152222222222,bcs1,MOJAFFORABAD,,True,True
N1,271.89,Box Culvert,LRP268a,ROWSONAT CUL,14.0,A,100674,Dhaka (Jatrabari)-Comilla (Mainamati)-Chittagong-Teknaf Road,271.89,12.6,1991.0,3.0,Chittagong,Chittagong,Dohazari,Patiya,22.2410555555555,92.0215555555555,bcs1,ROWSONAT CUL,,True,True
N1,272.356,Box Culvert,LRP268b,KANCHANAGAR CUL,14.0,A,100676,Dhaka (Jatrabari)-Comilla (Mainamati)-Chittagong-Teknaf Road,272.356,10.3,1978.0,3.0,Chittagong,Chittagong,Dohazari,Patiya,22.23725,92.0230277777777,bcs1,KANCHANAGAR CUL,,True,True
N1,273.878,Box Culvert,LRP270a,GASBAREA BOX CULVERT,14.0,A,100654,Dhaka (Jatrabari)-Comilla (Mainamati)-Chittagong-Teknaf Road,273.878,12.1,1991.0,3.0,Chittagong,Chittagong,Dohazari,Patiya,22.2240833333333,92.0271666666666,bcs1,GASBAREA BOX CULVERT,,True,True
N1,274.66,Box Culvert,LRP271a,GASBAREA COLLEGE BOX CULVERT,9.2,A,100655,Dhaka (Jatrabari)-Comilla (Mainamati)-Chittagong-Teknaf Road,274.66,9.7,1985.0,2.0,Chittagong,Chittagong,Dohazari,Patiya,22.2171388888888,92.0282222222222,bcs1,GASBAREA COLLEGE BOX CULVERT,,True,True
N1,284.134,Box Culvert,LRP280a,KATGOR CULVERT,9.2,A,100696,Dhaka (Jatrabari)-Comilla (Mainamati)-Chittagong-Teknaf Road,284.134,11.6,1993.0,2.0,Chittagong,Chittagong,Dohazari,Dohazari,22.1509444444444,92.0695277777777,bcs1,KATGOR CULVERT,,True,True
N1,285.58,Box Culvert,LRP282a,MOULOVER DOKAN,12.4,A,100725,Dhaka (Jatrabari)-Comilla (Mainamati)-Chittagong-Teknaf Road,285.58,11.6,1994.0,3.0,Chittagong,Chittagong,Dohazari,Dohazari,22.1379722222222,92.0697222222222,bcs1,MOULOVER DOKAN,,True,True
N1,286.08,Box Culvert,LRP282c,PATATR PULL CULVERT,15.4,A,100700,Dhaka (Jatrabari)-Comilla (Mainamati)-Chittagong-Teknaf Road,286.08,11.6,1994.0,3.0,Chittagong,Chittagong,Dohazari,Dohazari,22.1334722222222,92.0700277777777,bcs1,PATATR PULL CULVERT,,True,True
N1,286.378,PC Girder Bridge,LRP282e,Pathanerpul Bridge,33.65,A,121104,Dhaka (Jatrabari)-Comilla (Mainamati)-Chittagong-Teknaf Road,286.378,11.4,1980.0,1.0,Chittagong,Chittagong,Dohazari,Dohazari,22.1299160285714,92.0706024714285,road_interpolate,PATHANERPUL BRIDGE,,True,True
N1,286.631,RCC Girder Bridge,LRP283a,Noyakhalar Muk Bridge,27.9,A,121105,Dhaka (Jatrabari)-Comilla (Mainamati)-Chittagong-Teknaf Road,286.631,9.6,1982.0,2.0,Chittagong,Chittagong,Dohazari,Dohazari,22.1750827,92.0528611,road_precise,NOYAKHALAR MUK BRIDGE,,True,True
N1,286.631,RCC Girder Bridge,LRP283a,NOYAKHALAR MUK,28.0,A,100714,Dhaka (Jatrabari)-Comilla (Mainamati)-Chittagong-Teknaf Road,286.631,11.6,1978.0,2.0,Chittagong,Chittagong,Dohazari,Dohazari,22.1277222222222,92.0711111111111,bcs1,NOYAKHALAR MUK,,True,True
N1,287.144,Box Culvert,LRP283c,NOYAKHALARMUK,15.4,A,100721,Dhaka (Jatrabari)-Comilla (Mainamati)-Chittagong-Teknaf Road,287.144,10.3,1994.0,3.0,Chittagong,Chittagong,Dohazari,Dohazari,22.1238611111111,92.0717222222222,bcs1,NOYAKHALARMUK,,True,True
N1,287.487,Box Culvert,LRP283d,NOYA KHALAR MUK (KARANIERHAT) BOX CULVERT,20.4,A,100718,Dhaka (Jatrabari)-Comilla (Mainamati)-Chittagong-Teknaf Road,287.487,12.6,1994.0,4.0,Chittagong,Chittagong,Dohazari,Dohazari,22.1206388888888,92.072,bcs1,NOYA KHALAR MUK BOX CULVERT,,True,True
N1,288.329,Box Culvert,LRP284a,KARANERHAT CULVERT,5.0,A,100711,Dhaka (Jatrabari)-Comilla (Mainamati)-Chittagong-Teknaf Road,288.329,12.3,1994.0,1.0,Chittagong,Chittagong,Dohazari,Dohazari,22.1131944444444,92.0727222222222,bcs1,KARANERHAT CULVERT,,True,True
N1,289.889,Box Culvert,LRP286b,KARANERHAT CULVERT,7.2,A,100709,Dhaka (Jatrabari)-Comilla (Mainamati)-Chittagong-Teknaf Road,289.889,12.2,1994.0,2.0,Chittagong,Chittagong,Dohazari,Dohazari,22.0996388888888,92.0744444444444,bcs1,KARANERHAT CULVERT,,True,True
N1,290.719,Box Culvert,LRP287a,KOACHIA(MADARBHI),11.2,A,100707,Dhaka (Jatrabari)-Comilla (Mainamati)-Chittagong-Teknaf Road,290.719,11.6,1994.0,3.0,Chittagong,Chittagong,Dohazari,Dohazari,22.0939166666666,92.0795833333333,bcs1,KOACHIA,,True,True
N1,292.426,Box Culvert,LRP288a,MITADIGI ACADEMY,2.0,A,100706,Dhaka (Jatrabari)-Comilla (Mainamati)-Chittagong-Teknaf Road,292.426,12.2,1994.0,1.0,Chittagong,Chittagong,Dohazari,Dohazari,22.0845,92.0925555555555,bcs1,MITADIGI ACADEMY,,True,True
N1,293.134,Box Culvert,LRP289a,MITADIGI,12.6,A,100703,Dhaka (Jatrabari)-Comilla (Mainamati)-Chittagong-Teknaf Road,293.134,11.6,1993.0,4.0,Chittagong,Chittagong,Dohazari,Dohazari,22.0811388888888,92.0985277777777,bcs1,MITADIGI,,True,True
N1,294.534,PC Girder Bridge,LRP291a,RAJGHATA BRIDGE,30.3,A,100701,Dhaka (Jatrabari)-Comilla (Mainamati)-Chittagong-Teknaf Road,294.534,11.6,1992.0,2.0,Chittagong,Chittagong,Dohazari,Dohazari,22.07,92.1039166666666,bcs1,RAJGHATA BRIDGE,,True,True
N1,294.77,Box Culvert,LRP291c,THAKUR DIGI BOX CULVERT,2.0,A,100702,Dhaka (Jatrabari)-Comilla (Mainamati)-Chittagong-Teknaf Road,294.77,12.2,1994.0,1.0,Chittagong,Chittagong,Dohazari,Dohazari,22.0685277777777,92.1056388888888,bcs1,THAKUR DIGI BOX CULVERT,,True,True
N1,295.295,RCC Girder Bridge,LRP291d,Khoria Nagar Bridge,38.5,A,121109,Dhaka (Jatrabari)-Comilla (Mainamati)-Chittagong-Teknaf Road,295.295,11.6,1993.0,2.0,Chittagong,Chittagong,Dohazari,Dohazari,22.0637567157894,92.1071061094736,road_interpolate,KHORIA NAGAR BRIDGE,,True,True
N1,295.625,Box Culvert,LRP292a,NOYA PARA BOX CULVERT,2.5,A,100705,Dhaka (Jatrabari)-Comilla (Mainamati)-Chittagong-Teknaf Road,295.625,12.2,1991.0,1.0,Chittagong,Chittagong,Dohazari,Dohazari,22.06125,92.1077777777777,bcs1,NOYA PARA BOX CULVERT,,True,True
N1,296.135,Box Culvert,LRP292b,PODUA NOYA PARA BOX CULVERT,8.2,A,100717,Dhaka (Jatrabari)-Comilla (Mainamati)-Chittagong-Teknaf Road,296.135,12.2,1992.0,2.0,Chittagong,Chittagong,Dohazari,Dohazari,22.0569722222222,92.1092222222222,bcs1,PODUA NOYA PARA BOX CULVERT,,True,True
N1,296.647,Box Culvert,LRP293a,PODUA BAZAR BOX CULVERT,12.6,A,100708,Dhaka (Jatrabari)-Comilla (Mainamati)-Chittagong-Teknaf Road,296.647,11.6,1992.0,3.0,Chittagong,Chittagong,Dohazari,Dohazari,22.05225,92.1092777777777,bcs1,PODUA BAZAR BOX CULVERT,,True,True
N1,297.034,Box Culvert,LRP293c,PODUA BAZAR BOX CULVERT,6.0,A,100710,Dhaka (Jatrabari)-Comilla (Mainamati)-Chittagong-Teknaf Road,297.034,12.2,1992.0,2.0,Chittagong,Chittagong,Dohazari,Dohazari,22.0486944444444,92.1083611111111,bcs1,PODUA BAZAR BOX CULVERT,,True,True
N1,297.569,Box Culvert,LRP294a,BARO AWLIA(R),13.64,A,100724,Dhaka (Jatrabari)-Comilla (Mainamati)-Chittagong-Teknaf Road,297.569,11.6,1992.0,3.0,Chittagong,Chittagong,Dohazari,Dohazari,22.0442222222222,92.1074444444444,bcs1,BARO AWLIA,R,True,True
N1,298.405,Box Culvert,LRP294c,TALOCKDAR PARA,2.5,A,114227,Dhaka (Jatrabari)-Comilla (Mainamati)-Chittagong-Teknaf Road,298.405,12.2,1991.0,1.0,Chittagong,Chittagong,Dohazari,Dohazari,22.0376388888888,92.1038888888888,bcs1,TALOCKDAR PARA,,True,True
N1,299.057,Box Culvert,LRP295a,AMIRABAD BOX CULVERT,2.5,A,100659,Dhaka (Jatrabari)-Comilla (Mainamati)-Chittagong-Teknaf Road,299.057,12.2,1991.0,1.0,Chittagong,Chittagong,Dohazari,Dohazari,22.0317222222222,92.1040277777777,bcs1,AMIRABAD BOX CULVERT,,True,True
N1,299.434,PC Girder Bridge,LRP295b,Amirabad Bridge,68.8,A,121123,Dhaka (Jatrabari)-Comilla (Mainamati)-Chittagong-Teknaf Road,299.434,11.6,1992.0,2.0,Chittagong,Chittagong,Dohazari,Dohazari,22.0287013636363,92.1034293272727,road_interpolate,AMIRABAD BRIDGE,,True,True
N1,300.406,Box Culvert,LRP296b,AMIRABAD LOHAGORA BOX CULVERT,10.0,A,100664,Dhaka (Jatrabari)-Comilla (Mainamati)-Chittagong-Teknaf Road,300.406,11.8,1994.0,2.0,Chittagong,Chittagong,Dohazari,Dohazari,22.0204166666666,92.1015277777777,bcs1,AMIRABAD LOHAGORA BOX CULVERT,,True,True
N1,302.237,Box Culvert,LRP298a,LOHAGORA L.S BOX CULVERT,3.0,A,100665,Dhaka (Jatrabari)-Comilla (Mainamati)-Chittagong-Teknaf Road,302.237,12.2,1994.0,1.0,Chittagong,Chittagong,Dohazari,Dohazari,22.0076111111111,92.0926666666666,bcs1,LOHAGORA S BOX CULVERT,L,True,True
N1,302.729,Box Culvert,LRP299a,DIGIRPARK BOX CULVERT,12.6,A,100667,Dhaka (Jatrabari)-Comilla (Mainamati)-Chittagong-Teknaf Road,302.729,11.6,1993.0,3.0,Chittagong,Chittagong,Dohazari,Dohazari,22.00375,92.09025,bcs1,DIGIRPARK BOX CULVERT,,True,True
N1,303.237,Box Culvert,LRP299c,DIGIRPAR BOX CULVERT,6.2,A,100669,Dhaka (Jatrabari)-Comilla (Mainamati)-Chittagong-Teknaf Road,303.237,12.2,1993.0,2.0,Chittagong,Chittagong,Dohazari,Dohazari,21.9998888888888,92.0881666666666,bcs1,DIGIRPAR BOX CULVERT,,True,True
N1,303.782,Box Culvert,LRP300a,ZADUNAGOR FILLING BOX CULVERT,3.0,A,100670,Dhaka (Jatrabari)-Comilla (Mainamati)-Chittagong-Teknaf Road,303.782,12.2,1992.0,1.0,Chittagong,Chittagong,Dohazari,Dohazari,21.9950833333333,92.0873611111111,bcs1,ZADUNAGOR FILLING BOX CULVERT,R,True,True
N1,304.217,PC Girder Bridge,LRP300d,Khasmahal Bridge,58.5,A,121125,Dhaka (Jatrabari)-Comilla (Mainamati)-Chittagong-Teknaf Road,304.217,11.6,1987.0,2.0,Chittagong,Chittagong,Dohazari,Dohazari,21.9922334387096,92.0863582073732,road_interpolate,KHASMAHAL BRIDGE,,True,True
N1,304.449,Box Culvert,LRP301a,ZADUNAGOR BUS STATION BOX CULVERT,14.2,A,100677,Dhaka (Jatrabari)-Comilla (Mainamati)-Chittagong-Teknaf Road,304.449,12.5,1986.0,3.0,Chittagong,Chittagong,Dohazari,Dohazari,21.9889722222222,92.0853333333333,bcs1,ZADUNAGOR BUS STATION BOX CULVERT,,True,True
N1,304.857,PC Girder Bridge,LRP301b,Aadunagor bridge,24.2,A,100679,Dhaka (Jatrabari)-Comilla (Mainamati)-Chittagong-Teknaf Road,304.857,10.0,1992.0,1.0,Chittagong,Chittagong,Dohazari,Dohazari,21.9861944444444,92.0836666666666,bcs1,AADUNAGOR BRIDGE,,True,True
N1,305.527,PC Girder Bridge,LRP302a,HATIAR PULL PC GIDER BRIDGE,22.5,A,100698,Dhaka (Jatrabari)-Comilla (Mainamati)-Chittagong-Teknaf Road,305.527,10.0,1992.0,1.0,Chittagong,Chittagong,Dohazari,Dohazari,21.9812222222222,92.0802499999999,bcs1,HATIAR PULL PC GIDER BRIDGE,,True,True
N1,305.794,Box Culvert,LRP302c,HATIAR PULL BOX CULVERT,18.7,A,100699,Dhaka (Jatrabari)-Comilla (Mainamati)-Chittagong-Teknaf Road,305.794,11.6,1991.0,4.0,Chittagong,Chittagong,Dohazari,Dohazari,21.9798888888888,92.0779444444444,bcs1,HATIAR PULL BOX CULVERT,,True,True
N1,306.139,Box Culvert,LRP302e,SHIX DAR PARA BOX CULVERT,3.5,A,100712,Dhaka (Jatrabari)-Comilla (Mainamati)-Chittagong-Teknaf Road,306.139,12.7,1992.0,1.0,Chittagong,Chittagong,Dohazari,Dohazari,21.9789166666666,92.0747777777777,bcs1,SHIX DAR PARA BOX CULVERT,,True,True
N1,307.229,Box Culvert,LRP303a,MUSKAMPANI PARA BOX CULVERT,2.5,A,100719,Dhaka (Jatrabari)-Comilla (Mainamati)-Chittagong-Teknaf Road,307.229,12.2,1989.0,1.0,Chittagong,Chittagong,Dohazari,Dohazari,21.9732499999999,92.0673333333333,bcs1,MUSKAMPANI PARA BOX CULVERT,,True,True
N1,307.981,Box Culvert,LRP304b,AODU NAGOR (2) BOX CULVERT,1.5,A,100713,Dhaka (Jatrabari)-Comilla (Mainamati)-Chittagong-Teknaf Road,307.981,12.1,1982.0,1.0,Chittagong,Chittagong,Dohazari,Dohazari,21.9673611111111,92.0634722222222,bcs1,AODU NAGOR BOX CULVERT,R,True,True
N1,308.652,PC Girder Bridge,LRP305a,RATAR KUL- SONTI BRIDGE,22.4,A,100715,Dhaka (Jatrabari)-Comilla (Mainamati)-Chittagong-Teknaf Road,308.652,10.0,1986.0,1.0,Chittagong,Chittagong,Dohazari,Dohazari,21.9620555555555,92.0634166666666,bcs1,RATAR KUL- SONTI BRIDGE,,True,True
N1,309.038,Box Culvert,LRP305c,BONPUKR PARA BOX CULVERT,8.2,A,100697,Dhaka (Jatrabari)-Comilla (Mainamati)-Chittagong-Teknaf Road,309.038,12.7,1992.0,2.0,Chittagong,Chittagong,Dohazari,Dohazari,21.9591666666666,92.0653055555555,bcs1,BONPUKR PARA BOX CULVERT,,True,True
N1,309.355,Box Culvert,LRP306a,BON PUKUL PARA BOX CULVERT,3.0,A,100695,Dhaka (Jatrabari)-Comilla (Mainamati)-Chittagong-Teknaf Road,309.355,12.75,1987.0,1.0,Chittagong,Chittagong,Dohazari,Dohazari,21.9515277777777,92.0673888888888,bcs1,BON PUKUL PARA BOX CULVERT,,True,True
N1,310.723,Box Culvert,LRP307a,SANTI BOX CULVERT,1.4,A,100693,Dhaka (Jatrabari)-Comilla (Mainamati)-Chittagong-Teknaf Road,310.723,12.2,1992.0,1.0,Chittagong,Chittagong,Dohazari,Dohazari,21.9451388888888,92.0670833333333,bcs1,SANTI BOX CULVERT,,True,True
N1,311.886,Box Culvert,LRP308a,BRICK FIELD BOX CULVERT,4.5,A,100691,Dhaka (Jatrabari)-Comilla (Mainamati)-Chittagong-Teknaf Road,311.886,11.7,1993.0,1.0,Chittagong,Chittagong,Dohazari,Dohazari,21.9354444444444,92.0624166666666,bcs1,BRICK FIELD BOX CULVERT,,True,True
N1,312.138,Box Culvert,LRP308b,BACK FILD BOX CULVERT,9.3,A,100690,Dhaka (Jatrabari)-Comilla (Mainamati)-Chittagong-Teknaf Road,312.138,11.6,1992.0,2.0,Chittagong,Chittagong,Dohazari,Dohazari,21.9334444444444,92.0615555555555,bcs1,BACK FILD BOX CULVERT,,True,True
N1,312.354,Box Culvert,LRP309a,AZIZNAGOR FOREST BOX CULVERT,4.5,A,100689,Dhaka (Jatrabari)-Comilla (Mainamati)-Chittagong-Teknaf Road,312.354,11.7,1994.0,1.0,Chittagong,Chittagong,Dohazari,Dohazari,21.9311944444444,92.0601388888888,bcs1,AZIZNAGOR FOREST BOX CULVERT,,True,True
N1,312.609,Box Culvert,LRP309b,AZIZ NOGOR FOREST BOX CULVERT,4.7,A,100688,Dhaka (Jatrabari)-Comilla (Mainamati)-Chittagong-Teknaf Road,312.609,11.7,1986.0,1.0,Chittagong,Chittagong,Dohazari,Dohazari,21.9296666666666,92.0594166666666,bcs1,AZIZ NOGOR FOREST BOX CULVERT,,True,True
N1,313.947,Box Culvert,LRP310a,AZIZNAGOR BOX CULVERT,2.0,A,100687,Dhaka (Jatrabari)-Comilla (Mainamati)-Chittagong-Teknaf Road,313.947,12.2,1992.0,1.0,Chittagong,Chittagong,Dohazari,Dohazari,21.9179444444444,92.0598333333333,bcs1,AZIZNAGOR BOX CULVERT,,True,True
N1,314.144,Box Culvert,LRP310b,AZIZ NOGAR BOX CULVERT,3.0,A,100686,Dhaka (Jatrabari)-Comilla (Mainamati)-Chittagong-Teknaf Road,314.144,12.27,1993.0,1.0,Chittagong,Chittagong,Dohazari,Dohazari,21.9162499999999,92.0601388888888,bcs1,AZIZ NOGAR BOX CULVERT,,True,True
N1,314.502,Box Culvert,LRP311a,AZIZ NAGOR 1,4.0,A,114960,Dhaka (Jatrabari)-Comilla (Mainamati)-Chittagong-Teknaf Road,314.502,12.1,1994.0,1.0,Chittagong,Chittagong,Dohazari,Dohazari,21.9128333333333,92.0607222222222,bcs1,AZIZ NAGOR,L,True,True
N1,317.001,Box Culvert,LRP313b,HARBHANG CHOR,13.64,A,101238,Dhaka (Jatrabari)-Comilla (Mainamati)-Chittagong-Teknaf Road,317.001,15.1,1989.0,3.0,Comilla,Noakhali,Feni,Feni-1,21.8908333333333,92.0595833333333,bcs1,HARBHANG CHOR,,True,True
N1,318.11,Box Culvert,LRP314a,GHOIL MARA BOX CULVERT,9.3,A,100684,Dhaka (Jatrabari)-Comilla (Mainamati)-Chittagong-Teknaf Road,318.11,15.0,1989.0,2.0,Chittagong,Chittagong,Dohazari,Dohazari,21.8809166666666,92.059,bcs1,GHOIL MARA BOX CULVERT,,True,True
N1,320.189,Box Culvert,LRP316a,HARBANG,3.0,A,100681,Dhaka (Jatrabari)-Comilla (Mainamati)-Chittagong-Teknaf Road,320.189,12.3,1982.0,1.0,Chittagong,Chittagong,Dohazari,Dohazari,21.8625833333333,92.0594444444444,bcs1,HARBANG,,True,True
N1,320.513,PC Girder Bridge,LRP317a,HARBANGCHORA,56.4,A,100680,Dhaka (Jatrabari)-Comilla (Mainamati)-Chittagong-Teknaf Road,320.513,11.7,1995.0,2.0,Chittagong,Chittagong,Dohazari,Dohazari,21.8598055555555,92.0603055555555,bcs1,HARBANGCHORA,,True,True
N1,321.305,Box Culvert,LRP318a,ALIPUR BOX CULVERT,14.3,A,100403,Dhaka (Jatrabari)-Comilla (Mainamati)-Chittagong-Teknaf Road,321.305,15.05,1992.0,3.0,Chittagong,Chittagong,Dohazari,Dohazari,21.8526666666666,92.0608611111111,bcs1,ALIPUR BOX CULVERT,,True,True
N1,321.536,Box Culvert,LRP318b,HARBANG,2.1,A,114230,Dhaka (Jatrabari)-Comilla (Mainamati)-Chittagong-Teknaf Road,321.536,12.2,1974.0,1.0,Chittagong,Chittagong,Dohazari,Dohazari,21.8506111111111,92.0609722222222,bcs1,HARBANG,,True,True
N1,322.5,Box Culvert,LRP319a,HAR BAG BOX CULVERT,4.5,A,100404,Dhaka (Jatrabari)-Comilla (Mainamati)-Chittagong-Teknaf Road,322.5,12.2,1992.0,1.0,Chittagong,Chittagong,Dohazari,Dohazari,21.8426388888888,92.0638611111111,bcs1,HAR BAG BOX CULVERT,,True,True
N1,322.823,Box Culvert,LRP319b,HAR BAG BOX CULVERT,3.0,A,100406,Dhaka (Jatrabari)-Comilla (Mainamati)-Chittagong-Teknaf Road,322.823,12.25,1992.0,1.0,Chittagong,Chittagong,Cox's Bazar,Chakoria,21.8400555555555,92.0651111111111,bcs1,HAR BAG BOX CULVERT,,True,True
N1,323.619,Box Culvert,LRP320a,ATKOTA,15.8,A,114232,Dhaka (Jatrabari)-Comilla (Mainamati)-Chittagong-Teknaf Road,323.619,12.2,1995.0,3.0,Chittagong,Chittagong,Cox's Bazar,Chakoria,21.8337777777777,92.0685,bcs1,ATKOTA,,True,True
N1,324.331,Box Culvert,LRP321a,AKOTA BAZAR BOX CULVERT,7.3,A,100411,Dhaka (Jatrabari)-Comilla (Mainamati)-Chittagong-Teknaf Road,324.331,12.3,1991.0,2.0,Chittagong,Chittagong,Cox's Bazar,Chakoria,21.8280277777777,92.0713333333333,bcs1,AKOTA BAZAR BOX CULVERT,,True,True
N1,324.607,RCC Girder Bridge,LRP321b,BODOI TOLA RCC GIDER BRIDGE,46.0,A,100409,Dhaka (Jatrabari)-Comilla (Mainamati)-Chittagong-Teknaf Road,324.607,11.5,1992.0,3.0,Chittagong,Chittagong,Cox's Bazar,Chakoria,21.8256944444444,92.0723888888888,bcs1,BODOI TOLA RCC GIDER BRIDGE,,True,True
N1,325.153,Box Culvert,LRP321d,BODAITALI BOX CULVERT,12.4,A,100413,Dhaka (Jatrabari)-Comilla (Mainamati)-Chittagong-Teknaf Road,325.153,12.8,1992.0,3.0,Chittagong,Chittagong,Cox's Bazar,Chakoria,21.8208888888888,92.0740833333333,bcs1,BODAITALI BOX CULVERT,,True,True
N1,325.49,Box Culvert,LRP322a,BODOITOLI BOX CULVERT,14.0,A,100415,Dhaka (Jatrabari)-Comilla (Mainamati)-Chittagong-Teknaf Road,325.49,11.6,1992.0,3.0,Chittagong,Chittagong,Cox's Bazar,Chakoria,21.818,92.0739444444444,bcs1,BODOITOLI BOX CULVERT,,True,True
N1,327.312,Box Culvert,LRP323b,BANIYAR CHORA,14.0,A,100417,Dhaka (Jatrabari)-Comilla (Mainamati)-Chittagong-Teknaf Road,327.312,11.6,1998.0,3.0,Chittagong,Chittagong,Cox's Bazar,Chakoria,21.8031388888888,92.0773055555555,bcs1,BANIYAR CHORA,,True,True
N1,329.084,Box Culvert,LRP325a,NOL BELA-1 BOX CULVERT,20.6,A,100416,Dhaka (Jatrabari)-Comilla (Mainamati)-Chittagong-Teknaf Road,329.084,12.2,1992.0,4.0,Chittagong,Chittagong,Cox's Bazar,Chakoria,21.7872777777777,92.0789722222222,bcs1,NOL BELA- BOX CULVERT,L,True,True
N1,330.931,Box Culvert,LRP327a,DIDDA BAZAR BOX CULVERT,15.7,A,100421,Dhaka (Jatrabari)-Comilla (Mainamati)-Chittagong-Teknaf Road,330.931,11.5,1992.0,3.0,Chittagong,Chittagong,Cox's Bazar,Chakoria,21.7729166666666,92.0835833333333,bcs1,DIDDA BAZAR BOX CULVERT,,True,True
N1,335.38,Box Culvert,LRP332a,KUMARIKOOL BOX CULVERT,14.0,A,100423,Dhaka (Jatrabari)-Comilla (Mainamati)-Chittagong-Teknaf Road,335.38,13.8,1998.0,3.0,Chittagong,Chittagong,Cox's Bazar,Chakoria,21.7377222222222,92.0835833333333,bcs1,KUMARIKOOL BOX CULVERT,,True,True
N1,336.054,Box Culvert,LRP332b,PASIYAKALI BOX CULVERT,5.2,A,100425,Dhaka (Jatrabari)-Comilla (Mainamati)-Chittagong-Teknaf Road,336.054,12.2,1999.0,2.0,Chittagong,Chittagong,Cox's Bazar,Chakoria,21.7315833333333,92.0838611111111,bcs1,PASIYAKALI BOX CULVERT,,True,True
N1,336.237,RCC Girder Bridge,LRP332c,PASIYAKALI (2),38.8,A,100437,Dhaka (Jatrabari)-Comilla (Mainamati)-Chittagong-Teknaf Road,336.237,11.6,1998.0,2.0,Chittagong,Chittagong,Cox's Bazar,Chakoria,21.7301388888888,92.0838611111111,bcs1,PASIYAKALI,R,True,True
N1,337.019,Box Culvert,LRP333a,HASIRUGIGI,12.6,A,100405,Dhaka (Jatrabari)-Comilla (Mainamati)-Chittagong-Teknaf Road,337.019,11.6,1999.0,3.0,Chittagong,Chittagong,Cox's Bazar,Chakoria,21.7228888888888,92.0835277777777,bcs1,HASIRUGIGI,,True,True
N1,338.859,Box Culvert,LRP335a,CHOHAJANYA (1),12.8,A,100407,Dhaka (Jatrabari)-Comilla (Mainamati)-Chittagong-Teknaf Road,338.859,11.6,1999.0,3.0,Chittagong,Chittagong,Cox's Bazar,Chakoria,21.7080555555555,92.0801111111111,bcs1,CHOHAJANYA,L,True,True
N1,339.648,Box Culvert,LRP336a,CHOHAJANIYA (2),9.3,A,100408,Dhaka (Jatrabari)-Comilla (Mainamati)-Chittagong-Teknaf Road,339.648,11.6,1999.0,2.0,Chittagong,Chittagong,Cox's Bazar,Chakoria,21.7014722222222,92.0785833333333,bcs1,CHOHAJANIYA,R,True,True
N1,342.77,RCC Girder Bridge,LRP339a,JASJARI BRIDGE,59.6,A,100410,Dhaka (Jatrabari)-Comilla (Mainamati)-Chittagong-Teknaf Road,342.77,11.6,1999.0,4.0,Chittagong,Chittagong,Cox's Bazar,Chakoria,21.6743333333333,92.0767499999999,bcs1,JASJARI BRIDGE,,True,True
N1,343.243,Box Culvert,LRP339c,DULAHAJARA (SAFARI PARK),14.0,A,100412,Dhaka (Jatrabari)-Comilla (Mainamati)-Chittagong-Teknaf Road,343.243,15.1,1992.0,3.0,Chittagong,Chittagong,Cox's Bazar,Chakoria,21.6701666666666,92.0759722222222,bcs1,DULAHAJARA,,True,True
N1,344.209,Box Culvert,LRP340a,DULAHAJARA CULVERT,3.5,A,101050,Dhaka (Jatrabari)-Comilla (Mainamati)-Chittagong-Teknaf Road,344.209,12.2,1992.0,1.0,Chittagong,Chittagong,Cox's Bazar,Chakoria,21.6618888888888,92.0750277777777,bcs1,DULAHAJARA CULVERT,,True,True
N1,344.531,PC Girder Bridge,LRP341a,DULAHAJAR BRIDGE,54.4,A,100426,Dhaka (Jatrabari)-Comilla (Mainamati)-Chittagong-Teknaf Road,344.531,11.6,1992.0,2.0,Chittagong,Chittagong,Cox's Bazar,Chakoria,21.6590277777777,92.0752222222222,bcs1,DULAHAJAR BRIDGE,,True,True
N1,345.911,Box Culvert,LRP342c,PAGOLARIBIL,4.5,A,100424,Dhaka (Jatrabari)-Comilla (Mainamati)-Chittagong-Teknaf Road,345.911,12.2,1993.0,1.0,Chittagong,Chittagong,Cox's Bazar,Chakoria,21.6468055555555,92.0735277777777,bcs1,PAGOLARIBIL,,True,True
N1,350.674,Box Culvert,LRP347a,FULCHARI (NEWPARA),7.0,A,100428,Dhaka (Jatrabari)-Comilla (Mainamati)-Chittagong-Teknaf Road,350.674,12.8,1993.0,2.0,Chittagong,Chittagong,Cox's Bazar,Chakoria,21.6101111111111,92.0638888888888,bcs1,FULCHARI,,True,True
N1,350.99,Box Culvert,LRP347b,FULCHARI (NEWPARA),5.2,A,100429,Dhaka (Jatrabari)-Comilla (Mainamati)-Chittagong-Teknaf Road,350.99,12.2,1993.0,2.0,Chittagong,Chittagong,Cox's Bazar,Chakoria,21.6065555555555,92.0621944444444,bcs1,FULCHARI,,True,True
N1,351.628,Box Culvert,LRP348a,FULCHARI CULVERT,9.3,A,100431,Dhaka (Jatrabari)-Comilla (Mainamati)-Chittagong-Teknaf Road,351.628,12.75,1993.0,2.0,Chittagong,Chittagong,Cox's Bazar,Chakoria,21.6016388888888,92.0619166666666,bcs1,FULCHARI CULVERT,,True,True
N1,352.064,Box Culvert,LRP348b,FULCHARI BAZAR,14.0,A,100433,Dhaka (Jatrabari)-Comilla (Mainamati)-Chittagong-Teknaf Road,352.064,12.7,1993.0,3.0,Chittagong,Chittagong,Cox's Bazar,Chakoria,21.5976666666666,92.0618611111111,bcs1,FULCHARI BAZAR,,True,True
N1,352.641,Box Culvert,LRP349a,NAPITE KHALI CULVERT,1.4,A,100435,Dhaka (Jatrabari)-Comilla (Mainamati)-Chittagong-Teknaf Road,352.641,12.0,1993.0,1.0,Chittagong,Chittagong,Cox's Bazar,Chakoria,21.5925833333333,92.0612777777777,bcs1,NAPITE KHALI CULVERT,,True,True
N1,353.694,Box Culvert,LRP350a,EAST NAPITL KHAL BOX CULVERT,2.5,A,100432,Dhaka (Jatrabari)-Comilla (Mainamati)-Chittagong-Teknaf Road,353.694,12.2,1981.0,1.0,Chittagong,Chittagong,Cox's Bazar,Chakoria,21.58475,92.0651111111111,bcs1,EAST NAPITL KHAL BOX CULVERT,,True,True
N1,354.739,Box Culvert,LRP351a,NAEK KHALI BOX CULVERT,12.4,A,100434,Dhaka (Jatrabari)-Comilla (Mainamati)-Chittagong-Teknaf Road,354.739,12.7,1986.0,3.0,Chittagong,Chittagong,Cox's Bazar,Chakoria,21.5769999999999,92.0695277777777,bcs1,NAEK KHALI BOX CULVERT,,True,True
N1,356.261,Box Culvert,LRP352a,KHODIA BARI PRIMARY BOX CULVERT,9.5,A,100436,Dhaka (Jatrabari)-Comilla (Mainamati)-Chittagong-Teknaf Road,356.261,12.2,1993.0,3.0,Chittagong,Chittagong,Cox's Bazar,Cox's Bazar-1,21.5642777777777,92.0702777777777,bcs1,KHODIA BARI PRIMARY BOX CULVERT,,True,True
N1,356.517,Box Culvert,LRP353a,ISLAMABAD KHODIABARI BOX CULVERT,4.8,A,100438,Dhaka (Jatrabari)-Comilla (Mainamati)-Chittagong-Teknaf Road,356.517,12.2,1993.0,1.0,Chittagong,Chittagong,Cox's Bazar,Cox's Bazar-1,21.5619722222222,92.0698055555555,bcs1,ISLAMABAD KHODIABARI BOX CULVERT,,True,True
N1,357.264,PC Girder Bridge,LRP354a,Eidgaon Bazar Bridge,46.0,A,120377,Dhaka (Jatrabari)-Comilla (Mainamati)-Chittagong-Teknaf Road,357.264,11.6,1992.0,3.0,Chittagong,Chittagong,Cox's Bazar,Cox's Bazar-1,21.617166,92.0679993,road_precise,EIDGAON BAZAR BRIDGE,,True,True
N1,357.264,PC Girder Bridge,LRP354a,EIDGAON BAZAR PC GIDER BRIDGE,46.0,A,100443,Dhaka (Jatrabari)-Comilla (Mainamati)-Chittagong-Teknaf Road,357.264,11.5,1993.0,2.0,Chittagong,Chittagong,Cox's Bazar,Cox's Bazar-1,21.5554194444444,92.0678611111111,bcs1,EIDGAON BAZAR PC GIDER BRIDGE,,True,True
N1,360.345,Box Culvert,LRP357a,SHAT GOREA PARA BOX CULVERT,14.0,A,100446,Dhaka (Jatrabari)-Comilla (Mainamati)-Chittagong-Teknaf Road,360.345,12.7,1993.0,3.0,Chittagong,Chittagong,Cox's Bazar,Cox's Bazar-1,21.5284166666666,92.0651944444444,bcs1,SHAT GOREA PARA BOX CULVERT,,True,True
N1,360.551,Box Culvert,LRP357c,KALIRCHARA BOX CULVERT,8.0,A,100448,Dhaka (Jatrabari)-Comilla (Mainamati)-Chittagong-Teknaf Road,360.551,12.0,1999.0,2.0,Chittagong,Chittagong,Cox's Bazar,Cox's Bazar-1,21.5265,92.0655,bcs1,KALIRCHARA BOX CULVERT,,True,True
N1,360.89,Box Culvert,LRP357d,KALIRCHARA BAZAR BOX CULVERT,15.4,A,100450,Dhaka (Jatrabari)-Comilla (Mainamati)-Chittagong-Teknaf Road,360.89,11.5,1993.0,3.0,Chittagong,Chittagong,Cox's Bazar,Cox's Bazar-1,21.5235833333333,92.0656111111111,bcs1,KALIRCHARA BAZAR BOX CULVERT,,True,True
N1,361.043,Box Culvert,LRP357f,KALIRCHAR,5.0,A,114229,Dhaka (Jatrabari)-Comilla (Mainamati)-Chittagong-Teknaf Road,361.043,12.1,1993.0,1.0,Chittagong,Chittagong,Cox's Bazar,Cox's Bazar-1,21.5221666666666,92.0659166666666,bcs1,KALIRCHAR,,True,True
N1,361.751,Box Culvert,LRP358a,RASHIDNAGAR,3.0,A,100439,Dhaka (Jatrabari)-Comilla (Mainamati)-Chittagong-Teknaf Road,361.751,12.2,1993.0,1.0,Chittagong,Chittagong,Cox's Bazar,Cox's Bazar-1,21.5161944444444,92.0681944444444,bcs1,RASHIDNAGAR,,True,True
N1,362.168,Box Culvert,LRP358b,ROSHIDNAGAR CULVERT,2.5,A,100441,Dhaka (Jatrabari)-Comilla (Mainamati)-Chittagong-Teknaf Road,362.168,12.3,1993.0,1.0,Chittagong,Chittagong,Cox's Bazar,Cox's Bazar-1,21.5128888888888,92.07,bcs1,ROSHIDNAGAR CULVERT,,True,True
N1,362.691,Box Culvert,LRP359a,DOLERCHARA CULVERT,7.5,A,101044,Dhaka (Jatrabari)-Comilla (Mainamati)-Chittagong-Teknaf Road,362.691,11.9,1994.0,2.0,Chittagong,Chittagong,Cox's Bazar,Cox's Bazar-1,21.5085,92.07175,bcs1,DOLERCHARA CULVERT,,True,True
N1,362.889,Box Culvert,LRP359b,DOLERCHARA CULVERT,12.4,A,100444,Dhaka (Jatrabari)-Comilla (Mainamati)-Chittagong-Teknaf Road,362.889,11.8,1991.0,3.0,Chittagong,Chittagong,Cox's Bazar,Cox's Bazar-1,21.5070555555555,92.0729722222222,bcs1,DOLERCHARA CULVERT,,True,True
N1,364.056,Box Culvert,LRP360a,ROSHIDNAGAR (2),14.0,A,100445,Dhaka (Jatrabari)-Comilla (Mainamati)-Chittagong-Teknaf Road,364.056,15.1,1978.0,3.0,Chittagong,Chittagong,Cox's Bazar,Cox's Bazar-1,21.4976111111111,92.0765277777777,bcs1,ROSHIDNAGAR,R,True,True
N1,364.184,Box Culvert,LRP360c,"ROSHIDNAGAR U,R CULVERT",14.1,A,100447,Dhaka (Jatrabari)-Comilla (Mainamati)-Chittagong-Teknaf Road,364.184,15.1,1993.0,3.0,Chittagong,Chittagong,Cox's Bazar,Cox's Bazar-1,21.4966944444444,92.0771666666666,bcs1,"ROSHIDNAGAR U, CULVERT",R,True,True
N1,366.98,Box Culvert,LRP363b,JOARIANALA CULVERT,7.2,A,100449,Dhaka (Jatrabari)-Comilla (Mainamati)-Chittagong-Teknaf Road,366.98,12.2,1993.0,2.0,Chittagong,Chittagong,Cox's Bazar,Cox's Bazar-1,21.4798333333333,92.0937222222222,bcs1,JOARIANALA CULVERT,,True,True
N1,367.362,Box Culvert,LRP364a,JOARIANALA,14.0,A,114228,Dhaka (Jatrabari)-Comilla (Mainamati)-Chittagong-Teknaf Road,367.362,11.6,1993.0,3.0,Chittagong,Chittagong,Cox's Bazar,Cox's Bazar-1,21.4768055555555,92.0957777777777,bcs1,JOARIANALA,,True,True
N1,367.6,Box Culvert,LRP364c,JORIANALA,3.0,A,114231,Dhaka (Jatrabari)-Comilla (Mainamati)-Chittagong-Teknaf Road,367.6,12.2,1993.0,1.0,Chittagong,Chittagong,Cox's Bazar,Cox's Bazar-1,21.4751666666666,92.0971388888888,bcs1,JORIANALA,,True,True
N1,368.129,PC Girder Bridge,LRP364d,JOARIANALA BAZAR PC GIDER BRIDGE(L),57.6,A,100451,Dhaka (Jatrabari)-Comilla (Mainamati)-Chittagong-Teknaf Road,368.129,11.6,1993.0,3.0,Chittagong,Chittagong,Cox's Bazar,Cox's Bazar-1,21.4713055555555,92.0998611111111,bcs1,JOARIANALA BAZAR PC GIDER BRIDGE,L,True,True
N1,370.799,Box Culvert,LRP367a,MITA CHARI BOX CULVERT,9.2,A,100453,Dhaka (Jatrabari)-Comilla (Mainamati)-Chittagong-Teknaf Road,370.799,14.5,1996.0,2.0,Chittagong,Chittagong,Cox's Bazar,Cox's Bazar-1,21.4511944444444,92.0993888888888,bcs1,MITA CHARI BOX CULVERT,,True,True
N1,371.64,Box Culvert,LRP368a,RAMU HOSPITAL GATE,1.5,A,100454,Dhaka (Jatrabari)-Comilla (Mainamati)-Chittagong-Teknaf Road,371.64,12.2,1993.0,1.0,Chittagong,Chittagong,Cox's Bazar,Cox's Bazar-1,21.444,92.1013055555555,bcs1,RAMU HOSPITAL GATE,,True,True
N1,371.848,PC Girder Bridge,LRP368c,Mitacmari Ramu Bridge,58.6,A,120382,Dhaka (Jatrabari)-Comilla (Mainamati)-Chittagong-Teknaf Road,371.848,15.8,2002.0,1.0,Chittagong,Chittagong,Cox's Bazar,Cox's Bazar-1,21.4418389714285,92.1007083571428,road_interpolate,MITACMARI RAMU BRIDGE,,True,True
N1,372.43,Box Culvert,LRP369a,MARULA (WEST),3.0,A,100456,Dhaka (Jatrabari)-Comilla (Mainamati)-Chittagong-Teknaf Road,372.43,12.2,1981.0,1.0,Chittagong,Chittagong,Cox's Bazar,Cox's Bazar-1,21.4375555555555,92.0985277777777,bcs1,MARULA,,True,True
N1,372.782,Box Culvert,LRP369b,MARULA BOX CULVERT,2.5,A,100457,Dhaka (Jatrabari)-Comilla (Mainamati)-Chittagong-Teknaf Road,372.782,12.2,1995.0,1.0,Chittagong,Chittagong,Cox's Bazar,Cox's Bazar-1,21.4339722222222,92.0974444444444,bcs1,MARULA BOX CULVERT,,True,True
N1,373.192,Box Culvert,LRP369c,RAMU BRAC OFFICE,7.2,A,100461,Dhaka (Jatrabari)-Comilla (Mainamati)-Chittagong-Teknaf Road,373.192,12.1,1997.0,2.0,Chittagong,Chittagong,Cox's Bazar,Cox's Bazar-1,21.4310555555555,92.0958888888888,bcs1,RAMU BRAC OFFICE,,True,True
N1,373.424,Box Culvert,LRP370a,RAMU BY PASS MORE,3.5,A,100462,Dhaka (Jatrabari)-Comilla (Mainamati)-Chittagong-Teknaf Road,373.424,12.1,1997.0,1.0,Chittagong,Chittagong,Cox's Bazar,Cox's Bazar-1,21.4290833333333,92.0954722222222,bcs1,RAMU BY PASS MORE,,True,True
N1,374.081,Box Culvert,LRP370e,ROMA CALLAGE BOX CULVERT,18.8,A,100460,Dhaka (Jatrabari)-Comilla (Mainamati)-Chittagong-Teknaf Road,374.081,11.5,1995.0,4.0,Chittagong,Chittagong,Cox's Bazar,Cox's Bazar-1,21.4279444444444,92.0895833333333,bcs1,ROMA CALLAGE BOX CULVERT,,True,True
N1,374.655,Box Culvert,LRP371a,ROMA TECHIPUL,8.2,A,100459,Dhaka (Jatrabari)-Comilla (Mainamati)-Chittagong-Teknaf Road,374.655,12.2,1995.0,2.0,Chittagong,Chittagong,Cox's Bazar,Cox's Bazar-1,21.4270555555555,92.0839166666666,bcs1,ROMA TECHIPUL,,True,True
N1,375.035,Box Culvert,LRP371c,SAMBAR PUL CULVERT,7.4,A,100458,Dhaka (Jatrabari)-Comilla (Mainamati)-Chittagong-Teknaf Road,375.035,12.2,1997.0,2.0,Chittagong,Chittagong,Cox's Bazar,Cox's Bazar-1,21.42675,92.0804166666666,bcs1,SAMBAR PUL CULVERT,,True,True
N1,375.416,Box Culvert,LRP372a,CHAKMARKOOL,12.4,A,114963,Dhaka (Jatrabari)-Comilla (Mainamati)-Chittagong-Teknaf Road,375.416,10.0,1995.0,2.0,Chittagong,Chittagong,Cox's Bazar,Cox's Bazar-1,21.4263888888888,92.0766944444444,bcs1,CHAKMARKOOL,,True,True
N1,376.062,Box Culvert,LRP372c,CHAKMAR KOOL BOX CULVERT,9.4,A,100464,Dhaka (Jatrabari)-Comilla (Mainamati)-Chittagong-Teknaf Road,376.062,12.4,1990.0,3.0,Chittagong,Chittagong,Cox's Bazar,Cox's Bazar-1,21.4273333333333,92.0703611111111,bcs1,CHAKMAR KOOL BOX CULVERT,,True,True
N1,376.931,Box Culvert,LRP373a,KHURUTIA BOX CULVERT,2.0,A,100466,Dhaka (Jatrabari)-Comilla (Mainamati)-Chittagong-Teknaf Road,376.931,12.2,1978.0,1.0,Chittagong,Chittagong,Cox's Bazar,Cox's Bazar-1,21.4270555555555,92.0632777777777,bcs1,KHURUTIA BOX CULVERT,,True,True
N1,377.189,Box Culvert,LRP373b,KHURULIA CULVERT,6.8,A,100467,Dhaka (Jatrabari)-Comilla (Mainamati)-Chittagong-Teknaf Road,377.189,11.8,1995.0,2.0,Chittagong,Chittagong,Cox's Bazar,Cox's Bazar-1,21.4273888888888,92.0607777777777,bcs1,KHURULIA CULVERT,,True,True
N1,377.519,Box Culvert,LRP374a,KHURULIA SCHOOL BOX CULVERT,16.6,A,100468,Dhaka (Jatrabari)-Comilla (Mainamati)-Chittagong-Teknaf Road,377.519,11.6,1992.0,4.0,Chittagong,Chittagong,Cox's Bazar,Cox's Bazar-1,21.4278333333333,92.0582222222222,bcs1,KHURULIA SCHOOL BOX CULVERT,,True,True
N1,377.753,Box Culvert,LRP374c,KHURULIA SCHOOL BOX CULVERT,18.6,A,100469,Dhaka (Jatrabari)-Comilla (Mainamati)-Chittagong-Teknaf Road,377.753,11.4,1993.0,4.0,Chittagong,Chittagong,Cox's Bazar,Cox's Bazar-1,21.4280833333333,92.0553888888888,bcs1,KHURULIA SCHOOL BOX CULVERT,,True,True
N1,378.02,Box Culvert,LRP374e,KHURULIA CHAIRMAN PARA BOX CULVERT,7.2,A,100471,Dhaka (Jatrabari)-Comilla (Mainamati)-Chittagong-Teknaf Road,378.02,12.0,1995.0,2.0,Chittagong,Chittagong,Cox's Bazar,Cox's Bazar-1,21.4281666666666,92.0528611111111,bcs1,KHURULIA CHAIRMAN PARA BOX CULVERT,,True,True
N1,378.492,RCC Girder Bridge,LRP375a,SARKAR PARA BRIDGE,13.0,A,100473,Dhaka (Jatrabari)-Comilla (Mainamati)-Chittagong-Teknaf Road,378.492,11.6,1985.0,1.0,Chittagong,Chittagong,Cox's Bazar,Cox's Bazar-1,21.4276388888888,92.0484166666666,bcs1,SARKAR PARA BRIDGE,,True,True
N1,379.004,Box Culvert,LRP375c,WEST DOVGE BOX CULVERT,10.9,A,100474,Dhaka (Jatrabari)-Comilla (Mainamati)-Chittagong-Teknaf Road,379.004,11.6,1992.0,3.0,Chittagong,Chittagong,Cox's Bazar,Cox's Bazar-1,21.4296666666666,92.0439722222222,bcs1,WEST DOVGE BOX CULVERT,,True,True
N1,379.504,Box Culvert,LRP376a,MUKTAR KUL,9.2,A,100476,Dhaka (Jatrabari)-Comilla (Mainamati)-Chittagong-Teknaf Road,379.504,11.6,1992.0,2.0,Chittagong,Chittagong,Cox's Bazar,Cox's Bazar-1,21.4298055555555,92.0394722222222,bcs1,MUKTAR KUL,,True,True
N1,380.346,RCC Girder Bridge,LRP377a,BAKKHALI BRIDGE,148.5,A,101046,Dhaka (Jatrabari)-Comilla (Mainamati)-Chittagong-Teknaf Road,380.346,8.8,1989.0,7.0,Chittagong,Chittagong,Cox's Bazar,Cox's Bazar-1,21.4293888888888,92.0315833333333,bcs1,BAKKHALI BRIDGE,,True,True
N1,380.615,Box Culvert,LRP377c,MOHURI RARA BOX,3.5,A,101033,Dhaka (Jatrabari)-Comilla (Mainamati)-Chittagong-Teknaf Road,380.615,12.1,1984.0,1.0,Chittagong,Chittagong,Cox's Bazar,Cox's Bazar-1,21.4301944444444,92.0300833333333,bcs1,MOHURI RARA BOX,,True,True
N1,380.759,Box Culvert,LRP377d,RABAR DAM BOX,10.3,A,101029,Dhaka (Jatrabari)-Comilla (Mainamati)-Chittagong-Teknaf Road,380.759,11.65,1989.0,2.0,Chittagong,Chittagong,Cox's Bazar,Cox's Bazar-1,21.4299444444444,92.0279444444444,bcs1,RABAR DAM BOX,,True,True
N1,381.374,Box Culvert,LRP377f,LINK ROAD CULVERT,9.0,A,101027,Dhaka (Jatrabari)-Comilla (Mainamati)-Chittagong-Teknaf Road,381.374,11.6,1989.0,3.0,Chittagong,Chittagong,Cox's Bazar,Cox's Bazar-1,21.4261666666666,92.0236666666666,bcs1,LINK ROAD CULVERT,,True,True
N1,383.632,Box Culvert,LRP380a,KANAR PARA,10.9,A,101010,Dhaka (Jatrabari)-Comilla (Mainamati)-Chittagong-Teknaf Road,383.632,11.5,1996.0,3.0,Chittagong,Chittagong,Cox's Bazar,Cox's Bazar-1,21.4136111111111,92.0393888888889,bcs1,KANAR PARA,,True,True
N1,384.978,Box Culvert,LRP381b,SOUTH MITHACHARI,8.2,A,100993,Dhaka (Jatrabari)-Comilla (Mainamati)-Chittagong-Teknaf Road,384.978,11.5,1995.0,2.0,Chittagong,Chittagong,Cox's Bazar,Cox's Bazar-1,21.4103611111111,92.05075,bcs1,SOUTH MITHACHARI,,True,True
N1,386.494,Slab Culvert,LRP383a,CHALATOLI,1.6,A,101048,Dhaka (Jatrabari)-Comilla (Mainamati)-Chittagong-Teknaf Road,386.494,10.3,1952.0,1.0,Chittagong,Chittagong,Cox's Bazar,Cox's Bazar-1,21.4039444444444,92.0627222222222,bcs1,CHALATOLI,,True,True
N1,386.968,Box Culvert,LRP383b,CHALIYATOLI,3.6,A,100977,Dhaka (Jatrabari)-Comilla (Mainamati)-Chittagong-Teknaf Road,386.968,11.5,1992.0,1.0,Chittagong,Chittagong,Cox's Bazar,Cox's Bazar-1,21.4010277777777,92.066,bcs1,CHALIYATOLI,,True,True
N1,387.843,Box Culvert,LRP384a,PANCHORI,8.3,A,101032,Dhaka (Jatrabari)-Comilla (Mainamati)-Chittagong-Teknaf Road,387.843,11.5,1996.0,2.0,Chittagong,Chittagong,Cox's Bazar,Cox's Bazar-1,21.3934166666666,92.0682499999999,bcs1,PANCHORI,,True,True
N1,389.282,Slab Culvert,LRP385g,PANCHARA SLAB CULVERT,1.7,A,101007,Dhaka (Jatrabari)-Comilla (Mainamati)-Chittagong-Teknaf Road,389.282,7.2,1951.0,1.0,Chittagong,Chittagong,Cox's Bazar,Cox's Bazar-1,21.3812777777777,92.0711944444444,bcs1,PANCHARA SLAB CULVERT,,True,True
N1,389.724,Slab Culvert,LRP386c,DALA-2 SLAB CULVERT,1.5,A,100999,Dhaka (Jatrabari)-Comilla (Mainamati)-Chittagong-Teknaf Road,389.724,8.2,1951.0,1.0,Chittagong,Chittagong,Cox's Bazar,Cox's Bazar-1,21.3772222222222,92.0705833333333,bcs1,DALA- SLAB CULVERT,R,True,True
N1,390.047,Slab Culvert,LRP386e,DALA SLAB CULVERT,1.5,A,100995,Dhaka (Jatrabari)-Comilla (Mainamati)-Chittagong-Teknaf Road,390.047,7.2,1951.0,1.0,Chittagong,Chittagong,Cox's Bazar,Cox's Bazar-1,21.3753333333333,92.07275,bcs1,DALA SLAB CULVERT,,True,True
N1,390.506,Slab Culvert,LRP387a,PANAR CHORI SLAB CULVERT,1.3,A,100986,Dhaka (Jatrabari)-Comilla (Mainamati)-Chittagong-Teknaf Road,390.506,8.2,1951.0,1.0,Chittagong,Chittagong,Cox's Bazar,Cox's Bazar-1,21.3740555555555,92.0765277777777,bcs1,PANAR CHORI SLAB CULVERT,,True,True
N1,391.255,Box Culvert,LRP387e,TULA BAGAN BOX CULVERT,1.3,A,100976,Dhaka (Jatrabari)-Comilla (Mainamati)-Chittagong-Teknaf Road,391.255,9.2,1951.0,1.0,Chittagong,Chittagong,Cox's Bazar,Cox's Bazar-1,21.3678333333333,92.0802777777777,bcs1,TULA BAGAN BOX CULVERT,,True,True
N1,391.521,Slab Culvert,LRP388a,TULA BAGAN.,1.3,A,101077,Dhaka (Jatrabari)-Comilla (Mainamati)-Chittagong-Teknaf Road,391.521,8.2,1951.0,1.0,Chittagong,Chittagong,Cox's Bazar,Cox's Bazar-1,21.3656666666666,92.0813611111111,bcs1,TULA BAGAN,,True,True
N1,392.526,Box Culvert,LRP389a,TULA BAGAN,2.5,A,101091,Dhaka (Jatrabari)-Comilla (Mainamati)-Chittagong-Teknaf Road,392.526,11.5,1998.0,1.0,Chittagong,Chittagong,Cox's Bazar,Cox's Bazar-1,21.3573888888888,92.0791111111111,bcs1,TULA BAGAN,,True,True
N1,392.619,Slab Culvert,LRP389b,NORTH-CONIAPARA,1.3,A,101084,Dhaka (Jatrabari)-Comilla (Mainamati)-Chittagong-Teknaf Road,392.619,8.2,1951.0,1.0,Chittagong,Chittagong,Cox's Bazar,Cox's Bazar-1,21.3563055555555,92.0790555555555,bcs1,NORTH-CONIAPARA,,True,True
N1,393.038,Box Culvert,LRP389d,NORTH CONIA PARA BOX CULVERT,4.0,A,101080,Dhaka (Jatrabari)-Comilla (Mainamati)-Chittagong-Teknaf Road,393.038,11.5,1998.0,1.0,Chittagong,Chittagong,Cox's Bazar,Cox's Bazar-1,21.3528611111111,92.0783888888888,bcs1,NORTH CONIA PARA BOX CULVERT,,True,True
N1,393.764,PC Girder Bridge,LRP390a,WEST CONIARA,21.5,A,101081,Dhaka (Jatrabari)-Comilla (Mainamati)-Chittagong-Teknaf Road,393.764,10.0,1998.0,1.0,Chittagong,Chittagong,Cox's Bazar,Cox's Bazar-1,21.3461666666666,92.0792222222222,bcs1,WEST CONIARA,,True,True
N1,394.681,Box Culvert,LRP391a,KHONIA POLONG,14.1,A,101083,Dhaka (Jatrabari)-Comilla (Mainamati)-Chittagong-Teknaf Road,394.681,10.3,1998.0,3.0,Chittagong,Chittagong,Cox's Bazar,Cox's Bazar-1,21.3382777777777,92.0786944444444,bcs1,KHONIA POLONG,,True,True
N1,401.752,Box Culvert,LRP398a,SHAPUR,14.1,A,101061,Dhaka (Jatrabari)-Comilla (Mainamati)-Chittagong-Teknaf Road,401.752,11.4,2000.0,3.0,Chittagong,Chittagong,Cox's Bazar,Cox's Bazar - 2,21.2840555555555,92.1005833333333,bcs1,SHAPUR,,True,True
N1,402.323,Box Culvert,LRP398d,COURT BAZAR,10.3,A,101064,Dhaka (Jatrabari)-Comilla (Mainamati)-Chittagong-Teknaf Road,402.323,11.4,1998.0,2.0,Chittagong,Chittagong,Cox's Bazar,Cox's Bazar - 2,21.2791944444444,92.1020277777777,bcs1,COURT BAZAR,,True,True
N1,403.495,Box Culvert,LRP400a,RATNAPALANG,14.0,A,101066,Dhaka (Jatrabari)-Comilla (Mainamati)-Chittagong-Teknaf Road,403.495,11.5,1989.0,3.0,Chittagong,Chittagong,Cox's Bazar,Cox's Bazar - 2,21.2695277777777,92.1067499999999,bcs1,RATNAPALANG,,True,True
N1,403.79,Steel Beam & RCC Slab,LRP400c,CHADIRIKHANA,23.5,A,101070,Dhaka (Jatrabari)-Comilla (Mainamati)-Chittagong-Teknaf Road,403.79,4.3,1958.0,3.0,Chittagong,Chittagong,Cox's Bazar,Cox's Bazar - 2,21.268,92.1087222222222,bcs1,CHADIRIKHANA,,True,True
N1,405.969,Slab Culvert,LRP402b,JADI MORA (2) CULVERT,2.4,A,101075,Dhaka (Jatrabari)-Comilla (Mainamati)-Chittagong-Teknaf Road,405.969,7.0,1958.0,1.0,Chittagong,Chittagong,Cox's Bazar,Cox's Bazar - 2,21.2551666666666,92.1241666666666,bcs1,JADI MORA CULVERT,R,True,True
N1,406.218,Arch Masonry,LRP402c,JADIMORA (3),17.0,A,100726,Dhaka (Jatrabari)-Comilla (Mainamati)-Chittagong-Teknaf Road,406.218,9.0,1951.0,3.0,Chittagong,Chittagong,Cox's Bazar,Cox's Bazar - 2,21.2539722222222,92.1264444444444,bcs1,JADIMORA,,True,True
N1,406.517,Slab Culvert,LRP403a,JADIMORA (1),2.4,A,100731,Dhaka (Jatrabari)-Comilla (Mainamati)-Chittagong-Teknaf Road,406.517,7.2,1951.0,1.0,Chittagong,Chittagong,Cox's Bazar,Cox's Bazar - 2,21.2518888888888,92.1292777777777,bcs1,JADIMORA,L,True,True
N1,411.81,Slab Culvert,LRP408a,P. F PARA SLAB,2.0,A,100837,Dhaka (Jatrabari)-Comilla (Mainamati)-Chittagong-Teknaf Road,411.81,7.5,1958.0,1.0,Chittagong,Chittagong,Cox's Bazar,Cox's Bazar - 2,21.2261388888888,92.1611944444444,bcs1,P F PARA SLAB,,True,True
N1,413.66,Slab Culvert,LRP410a,KATU PALLANG SLAB,2.0,A,100830,Dhaka (Jatrabari)-Comilla (Mainamati)-Chittagong-Teknaf Road,413.66,7.0,1953.0,1.0,Chittagong,Chittagong,Cox's Bazar,Cox's Bazar - 2,21.2126944444444,92.1678333333333,bcs1,KATU PALLANG SLAB,,True,True
N1,413.901,Slab Culvert,LRP410b,KUTUNG PALANG SLAB,1.8,A,100824,Dhaka (Jatrabari)-Comilla (Mainamati)-Chittagong-Teknaf Road,413.901,7.0,1968.0,1.0,Chittagong,Chittagong,Cox's Bazar,Cox's Bazar - 2,21.2103611111111,92.1679166666666,bcs1,KUTUNG PALANG SLAB,,True,True
N1,415.056,Box Culvert,LRP411a,BALAKHALI TV CENTER,6.4,A,100819,Dhaka (Jatrabari)-Comilla (Mainamati)-Chittagong-Teknaf Road,415.056,11.0,1984.0,2.0,Chittagong,Chittagong,Cox's Bazar,Cox's Bazar - 2,21.2011666666666,92.1704444444444,bcs1,BALAKHALI TV CENTER,,True,True
N1,415.296,Slab Culvert,LRP411b,BALUKHALI-2 SLAB,2.2,A,100817,Dhaka (Jatrabari)-Comilla (Mainamati)-Chittagong-Teknaf Road,415.296,11.0,1951.0,1.0,Chittagong,Chittagong,Cox's Bazar,Cox's Bazar - 2,21.1989722222222,92.1703333333333,bcs1,BALUKHALI- SLAB,R,True,True
N1,415.574,Box Culvert,LRP412a,BALUKHALI KASTOM,3.1,A,100815,Dhaka (Jatrabari)-Comilla (Mainamati)-Chittagong-Teknaf Road,415.574,9.6,1973.0,1.0,Chittagong,Chittagong,Cox's Bazar,Cox's Bazar - 2,21.1964444444444,92.1706388888888,bcs1,BALUKHALI KASTOM,,True,True
N1,416.057,RCC Girder Bridge,LRP412b,BALUKHALI OLD BUS STAND,39.3,A,100812,Dhaka (Jatrabari)-Comilla (Mainamati)-Chittagong-Teknaf Road,416.057,7.35,1967.0,3.0,Chittagong,Chittagong,Cox's Bazar,Cox's Bazar - 2,21.1923333333333,92.1694444444444,bcs1,BALUKHALI OLD BUS STAND,,True,True
N1,416.354,Box Culvert,LRP412d,BAKUHHALI KASHAMIA,3.0,A,100810,Dhaka (Jatrabari)-Comilla (Mainamati)-Chittagong-Teknaf Road,416.354,9.5,1964.0,1.0,Chittagong,Chittagong,Cox's Bazar,Cox's Bazar - 2,21.1906666666666,92.16825,bcs1,BAKUHHALI KASHAMIA,,True,True
N1,416.966,RCC Girder Bridge,LRP413a,Batukhali Bridge,9.4,A,120431,Dhaka (Jatrabari)-Comilla (Mainamati)-Chittagong-Teknaf Road,416.966,9.2,1958.0,1.0,Chittagong,Chittagong,Cox's Bazar,Cox's Bazar - 2,21.2447497,92.1389441,road_precise,BATUKHALI BRIDGE,,True,True
N1,418.231,Box Culvert,LRP414a,GOGU GONA,1.2,A,100804,Dhaka (Jatrabari)-Comilla (Mainamati)-Chittagong-Teknaf Road,418.231,10.3,1978.0,1.0,Chittagong,Chittagong,Cox's Bazar,Cox's Bazar - 2,21.1788888888888,92.1572777777777,bcs1,GOGU GONA,,True,True
N1,419.63,RCC Girder Bridge,LRP416a,Changkhali Bridge,9.4,A,120436,Dhaka (Jatrabari)-Comilla (Mainamati)-Chittagong-Teknaf Road,419.63,9.7,1951.0,1.0,Chittagong,Chittagong,Cox's Bazar,Cox's Bazar - 2,21.1724828063829,92.1552940329787,road_interpolate,CHANGKHALI BRIDGE,,True,True
N1,419.88,RCC Girder Bridge,LRP416b,Changkhali Boro Bridge,21.5,A,120456,Dhaka (Jatrabari)-Comilla (Mainamati)-Chittagong-Teknaf Road,419.88,7.3,1978.0,3.0,Chittagong,Chittagong,Cox's Bazar,Cox's Bazar - 2,21.1703723502057,92.1547387765432,road_interpolate,CHANGKHALI BORO BRIDGE,,True,True
N1,420.18,Box Culvert,LRP416e,JAM TOLI BOX CULVERT,3.0,A,100796,Dhaka (Jatrabari)-Comilla (Mainamati)-Chittagong-Teknaf Road,420.18,9.6,1951.0,1.0,Chittagong,Chittagong,Cox's Bazar,Cox's Bazar - 2,21.1625555555555,92.1522777777777,bcs1,JAM TOLI BOX CULVERT,,True,True
N1,420.606,Box Culvert,LRP417b,DAIM PARA CULVERT,4.6,A,100788,Dhaka (Jatrabari)-Comilla (Mainamati)-Chittagong-Teknaf Road,420.606,9.6,1978.0,1.0,Chittagong,Chittagong,Cox's Bazar,Cox's Bazar - 2,21.1585555555555,92.1525833333333,bcs1,DAIM PARA CULVERT,,True,True
N1,421.156,Box Culvert,LRP417d,DAIM PARA CULVERT,3.0,A,100785,Dhaka (Jatrabari)-Comilla (Mainamati)-Chittagong-Teknaf Road,421.156,9.45,1951.0,1.0,Chittagong,Chittagong,Cox's Bazar,Cox's Bazar - 2,21.1538333333333,92.1527777777777,bcs1,DAIM PARA CULVERT,,True,True
N1,423.804,RCC Girder Bridge,LRP420c,GIVATOLI RCC GIDER BRIDGE,3.3,A,100797,Dhaka (Jatrabari)-Comilla (Mainamati)-Chittagong-Teknaf Road,423.804,9.6,1975.0,1.0,Chittagong,Chittagong,Cox's Bazar,Cox's Bazar - 2,21.1376111111111,92.1682222222222,bcs1,GIVATOLI RCC GIDER BRIDGE,,True,True
N1,424.075,RCC Girder Bridge,LRP420d,GIVA TOLI RCC GIDER BRIDGE,3.3,A,100799,Dhaka (Jatrabari)-Comilla (Mainamati)-Chittagong-Teknaf Road,424.075,9.6,1951.0,1.0,Chittagong,Chittagong,Cox's Bazar,Cox's Bazar - 2,21.1372777777777,92.1706388888888,bcs1,GIVA TOLI RCC GIDER BRIDGE,,True,True
N1,424.271,Box Culvert,LRP420e,GIVA TOLI BOX CULVERT,1.2,A,100803,Dhaka (Jatrabari)-Comilla (Mainamati)-Chittagong-Teknaf Road,424.271,9.6,1951.0,1.0,Chittagong,Chittagong,Cox's Bazar,Cox's Bazar - 2,21.1371111111111,92.1727222222222,bcs1,GIVA TOLI BOX CULVERT,,True,True
N1,425.882,RCC Girder Bridge,LRP422b,DMONIR GONA RCC GIDER BRIDGE,3.3,A,100818,Dhaka (Jatrabari)-Comilla (Mainamati)-Chittagong-Teknaf Road,425.882,9.6,1951.0,1.0,Chittagong,Chittagong,Cox's Bazar,Cox's Bazar - 2,21.131,92.1856944444444,bcs1,DMONIR GONA RCC GIDER BRIDGE,,True,True
N1,427.041,Box Culvert,LRP423c,W HIME KANG BOX CULVERT,1.2,A,100825,Dhaka (Jatrabari)-Comilla (Mainamati)-Chittagong-Teknaf Road,427.041,10.2,1951.0,1.0,Chittagong,Chittagong,Cox's Bazar,Cox's Bazar - 2,21.1231388888888,92.1925277777777,bcs1,W HIME KANG BOX CULVERT,,True,True
N1,427.154,Box Culvert,LRP423d,WHIKE KANG BOX CULVERT,1.2,A,100827,Dhaka (Jatrabari)-Comilla (Mainamati)-Chittagong-Teknaf Road,427.154,10.2,1970.0,1.0,Chittagong,Chittagong,Cox's Bazar,Cox's Bazar - 2,21.1221388888888,92.1931666666666,bcs1,WHIKE KANG BOX CULVERT,,True,True
N1,427.622,RCC Girder Bridge,LRP424a,wheke kang (1),6.4,A,100834,Dhaka (Jatrabari)-Comilla (Mainamati)-Chittagong-Teknaf Road,427.622,7.3,1978.0,1.0,Chittagong,Chittagong,Cox's Bazar,Cox's Bazar - 2,21.1190555555555,92.196,bcs1,WHEKE KANG,L,True,True
N1,427.804,RCC Girder Bridge,LRP424b,WHIKE KANG BRIDGE,3.35,A,100836,Dhaka (Jatrabari)-Comilla (Mainamati)-Chittagong-Teknaf Road,427.804,10.2,1978.0,1.0,Chittagong,Chittagong,Cox's Bazar,Cox's Bazar - 2,21.1175555555555,92.1965555555555,bcs1,WHIKE KANG BRIDGE,R,True,True
N1,427.969,RCC Girder Bridge,LRP424e,HOA EX KANG BAZAE,3.2,A,100842,Dhaka (Jatrabari)-Comilla (Mainamati)-Chittagong-Teknaf Road,427.969,10.2,1984.0,1.0,Chittagong,Chittagong,Cox's Bazar,Cox's Bazar - 2,21.1161944444444,92.1969444444444,bcs1,HOA EX KANG BAZAE,,True,True
N1,428.578,Box Culvert,LRP425a,AMTULI BOX CULVERT,3.4,A,100846,Dhaka (Jatrabari)-Comilla (Mainamati)-Chittagong-Teknaf Road,428.578,10.2,1984.0,1.0,Chittagong,Chittagong,Cox's Bazar,Cox's Bazar - 2,21.11175,92.20075,bcs1,AMTULI BOX CULVERT,,True,True
N1,429.491,Box Culvert,LRP425e,LAMBA-BIL PORA,1.2,A,100784,Dhaka (Jatrabari)-Comilla (Mainamati)-Chittagong-Teknaf Road,429.491,10.3,1967.0,1.0,Chittagong,Chittagong,Cox's Bazar,Cox's Bazar - 2,21.1063333333333,92.2070277777777,bcs1,LAMBA-BIL PORA,,True,True
N1,429.615,Box Culvert,LRP426a,LAMBABIL MIDDLE PARA,1.2,A,100782,Dhaka (Jatrabari)-Comilla (Mainamati)-Chittagong-Teknaf Road,429.615,10.2,1986.0,1.0,Chittagong,Chittagong,Cox's Bazar,Cox's Bazar - 2,21.1053333333333,92.2074166666666,bcs1,LAMBABIL MIDDLE PARA,,True,True
N1,429.912,Box Culvert,LRP426c,LAMBA - BIL - (1) BOX CULVERT,2.8,A,100851,Dhaka (Jatrabari)-Comilla (Mainamati)-Chittagong-Teknaf Road,429.912,10.2,1993.0,1.0,Chittagong,Chittagong,Cox's Bazar,Cox's Bazar - 2,21.1026111111111,92.2077777777777,bcs1,LAMBA - BIL - BOX CULVERT,L,True,True
N1,430.072,Slab Culvert,LRP426d,LAM BA BIL (2) BOX CULVERT,2.8,A,100852,Dhaka (Jatrabari)-Comilla (Mainamati)-Chittagong-Teknaf Road,430.072,10.2,1976.0,1.0,Chittagong,Chittagong,Cox's Bazar,Cox's Bazar - 2,21.1013055555555,92.2079444444444,bcs1,LAM BA BIL BOX CULVERT,R,True,True
N1,430.287,Box Culvert,LRP426e,LAMBA BIL (3) BOX CULVERT,1.2,A,100849,Dhaka (Jatrabari)-Comilla (Mainamati)-Chittagong-Teknaf Road,430.287,10.2,1964.0,1.0,Chittagong,Chittagong,Cox's Bazar,Cox's Bazar - 2,21.0995833333333,92.2091666666666,bcs1,LAMBA BIL BOX CULVERT,,True,True
N1,430.978,RCC Girder Bridge,LRP427b,UNCHI - PRANG BRIDGE,34.2,A,100848,Dhaka (Jatrabari)-Comilla (Mainamati)-Chittagong-Teknaf Road,430.978,7.3,1976.0,3.0,Chittagong,Chittagong,Cox's Bazar,Cox's Bazar - 2,21.0940277777777,92.2117777777777,bcs1,UNCHI - PRANG BRIDGE,,True,True
N1,431.167,Box Culvert,LRP427d,ON SIFAPAING BOX CULVERT,3.0,A,100847,Dhaka (Jatrabari)-Comilla (Mainamati)-Chittagong-Teknaf Road,431.167,10.2,1999.0,1.0,Chittagong,Chittagong,Cox's Bazar,Cox's Bazar - 2,21.0923611111111,92.2122777777777,bcs1,ON SIFAPAING BOX CULVERT,,True,True
N1,431.398,Box Culvert,LRP427e,UNCHING OPLONG CULVERT (1),1.2,A,100844,Dhaka (Jatrabari)-Comilla (Mainamati)-Chittagong-Teknaf Road,431.398,10.2,1999.0,1.0,Chittagong,Chittagong,Cox's Bazar,Cox's Bazar - 2,21.0902222222222,92.2129722222222,bcs1,UNCHING OPLONG CULVERT,L,True,True
N1,431.877,Box Culvert,LRP428a,KUTUB DIA PARA (1) CULVERT,2.7,A,100843,Dhaka (Jatrabari)-Comilla (Mainamati)-Chittagong-Teknaf Road,431.877,10.2,1964.0,1.0,Chittagong,Chittagong,Cox's Bazar,Cox's Bazar - 2,21.0865277777777,92.2150555555555,bcs1,KUTUB DIA PARA CULVERT,L,True,True
N1,432.19,Slab Culvert,LRP428c,KUTUB - DIA PARA (3),4.2,A,100840,Dhaka (Jatrabari)-Comilla (Mainamati)-Chittagong-Teknaf Road,432.19,10.3,1993.0,1.0,Chittagong,Chittagong,Cox's Bazar,Cox's Bazar - 2,21.0839166666666,92.2162777777777,bcs1,KUTUB - DIA PARA,,True,True
N1,432.411,Slab Culvert,LRP428d,KANGOR PARA,2.7,A,100885,Dhaka (Jatrabari)-Comilla (Mainamati)-Chittagong-Teknaf Road,432.411,10.2,1986.0,1.0,Chittagong,Chittagong,Cox's Bazar,Cox's Bazar - 2,21.082,92.21675,bcs1,KANGOR PARA,,True,True
N1,432.62,Box Culvert,LRP429a,KANGOR PARA MOZGID,1.2,A,100881,Dhaka (Jatrabari)-Comilla (Mainamati)-Chittagong-Teknaf Road,432.62,10.2,1976.0,1.0,Chittagong,Chittagong,Cox's Bazar,Cox's Bazar - 2,21.0798055555555,92.2171388888889,bcs1,KANGOR PARA MOZGID,,True,True
N1,432.865,Slab Culvert,LRP429b,KHAN GIOR PARA (1),2.8,A,100883,Dhaka (Jatrabari)-Comilla (Mainamati)-Chittagong-Teknaf Road,432.865,10.2,1964.0,1.0,Chittagong,Chittagong,Cox's Bazar,Cox's Bazar - 2,21.0784444444444,92.2188333333333,bcs1,KHAN GIOR PARA,L,True,True
N1,433.441,Box Culvert,LRP429f,RHANCHOR PARA BOX CULVERT,1.2,A,100872,Dhaka (Jatrabari)-Comilla (Mainamati)-Chittagong-Teknaf Road,433.441,10.2,1966.0,1.0,Chittagong,Chittagong,Cox's Bazar,Cox's Bazar - 2,21.0745833333333,92.2220833333333,bcs1,RHANCHOR PARA BOX CULVERT,,True,True
N1,433.665,Box Culvert,LRP430a,KHANCHOR PARA (2),1.0,A,100871,Dhaka (Jatrabari)-Comilla (Mainamati)-Chittagong-Teknaf Road,433.665,10.2,1984.0,1.0,Chittagong,Chittagong,Cox's Bazar,Cox's Bazar - 2,21.0727777777777,92.2231666666666,bcs1,KHANCHOR PARA,R,True,True
N1,433.826,Box Culvert,LRP430b,KHANCHOR PARA- BOX CULVERT,1.0,A,100870,Dhaka (Jatrabari)-Comilla (Mainamati)-Chittagong-Teknaf Road,433.826,10.2,1978.0,1.0,Chittagong,Chittagong,Cox's Bazar,Cox's Bazar - 2,21.0718611111111,92.2241944444444,bcs1,KHANCHOR PARA- BOX CULVERT,,True,True
N1,434.124,Slab Culvert,LRP430c,NOYA PARA (1) BOX CULVERT,3.0,A,100869,Dhaka (Jatrabari)-Comilla (Mainamati)-Chittagong-Teknaf Road,434.124,10.2,1978.0,1.0,Chittagong,Chittagong,Cox's Bazar,Cox's Bazar - 2,21.0692777777777,92.2246111111111,bcs1,NOYA PARA BOX CULVERT,L,True,True
N1,434.573,RCC Girder Bridge,LRP431a,NAYAPARA,5.8,A,100867,Dhaka (Jatrabari)-Comilla (Mainamati)-Chittagong-Teknaf Road,434.573,7.3,1974.0,1.0,Chittagong,Chittagong,Cox's Bazar,Cox's Bazar - 2,21.0651666666666,92.2245833333333,bcs1,NAYAPARA,,True,True
N1,434.831,Box Culvert,LRP431b,NOYA PARA,1.3,A,100865,Dhaka (Jatrabari)-Comilla (Mainamati)-Chittagong-Teknaf Road,434.831,10.2,1962.0,1.0,Chittagong,Chittagong,Cox's Bazar,Cox's Bazar - 2,21.0626944444444,92.2256944444444,bcs1,NOYA PARA,,True,True
N1,435.748,Box Culvert,LRP432a,NINA BAZAR BOX CULVERT,1.2,A,100882,Dhaka (Jatrabari)-Comilla (Mainamati)-Chittagong-Teknaf Road,435.748,10.3,1964.0,1.0,Chittagong,Chittagong,Cox's Bazar,Cox's Bazar - 2,21.0550555555555,92.2265555555555,bcs1,NINA BAZAR BOX CULVERT,,True,True
N1,439.579,Box Culvert,LRP435c,ALI AXBAR PARA BOX CULVERT,6.2,A,100860,Dhaka (Jatrabari)-Comilla (Mainamati)-Chittagong-Teknaf Road,439.579,11.5,1984.0,2.0,Chittagong,Chittagong,Cox's Bazar,Cox's Bazar - 2,21.0262222222222,92.2418333333333,bcs1,ALI AXBAR PARA BOX CULVERT,,True,True
N1,440.724,Slab Culvert,LRP437a,NILLA BOX CULVERT (1),4.4,A,100856,Dhaka (Jatrabari)-Comilla (Mainamati)-Chittagong-Teknaf Road,440.724,10.2,1976.0,1.0,Chittagong,Chittagong,Cox's Bazar,Cox's Bazar - 2,21.0169444444444,92.2439722222222,bcs1,NILLA BOX CULVERT,L,True,True
N1,440.977,Slab Culvert,LRP437b,NILA. BARAR BOX CULVERT,2.9,A,100855,Dhaka (Jatrabari)-Comilla (Mainamati)-Chittagong-Teknaf Road,440.977,10.2,1968.0,1.0,Chittagong,Chittagong,Cox's Bazar,Cox's Bazar - 2,21.0151388888888,92.2452777777777,bcs1,NILA BARAR BOX CULVERT,,True,True
N1,441.666,Slab Culvert,LRP438a,NILA - DORGA- PARA-(1) BOX,2.8,A,100853,Dhaka (Jatrabari)-Comilla (Mainamati)-Chittagong-Teknaf Road,441.666,9.6,1962.0,1.0,Chittagong,Chittagong,Cox's Bazar,Cox's Bazar - 2,21.01,92.2492777777777,bcs1,NILA - DORGA- PARA- BOX,L,True,True
N1,441.974,Slab Culvert,LRP438b,NILA DOGA PARA BOX CULVERT,2.8,A,100927,Dhaka (Jatrabari)-Comilla (Mainamati)-Chittagong-Teknaf Road,441.974,9.6,1974.0,1.0,Chittagong,Chittagong,Cox's Bazar,Cox's Bazar - 2,21.0083333333333,92.2510277777777,bcs1,NILA DOGA PARA BOX CULVERT,,True,True
N1,442.161,Slab Culvert,LRP438c,NAT MURA PARA BOX CULVERT,1.9,A,100931,Dhaka (Jatrabari)-Comilla (Mainamati)-Chittagong-Teknaf Road,442.161,10.2,1966.0,1.0,Chittagong,Chittagong,Cox's Bazar,Cox's Bazar - 2,21.00675,92.2519444444444,bcs1,NAT MURA PARA BOX CULVERT,,True,True
N1,446.71,RCC Girder Bridge,LRP443a,Ladapara Bridge,36.6,A,120541,Dhaka (Jatrabari)-Comilla (Mainamati)-Chittagong-Teknaf Road,446.71,10.2,1954.0,1.0,Chittagong,Chittagong,Cox's Bazar,Cox's Bazar - 2,21.0407497,92.2374997,road_precise,LADAPARA BRIDGE,,True,True
N1,447.084,Slab Culvert,LRP443c,NAYAPARA BOX CULVERT,2.8,A,100959,Dhaka (Jatrabari)-Comilla (Mainamati)-Chittagong-Teknaf Road,447.084,10.15,1985.0,1.0,Chittagong,Chittagong,Cox's Bazar,Cox's Bazar - 2,20.9649166666666,92.2514722222222,bcs1,NAYAPARA BOX CULVERT,,True,True
N1,447.893,Box Culvert,LRP444a,NAYA PARA BOX CULVERT,1.2,A,101090,Dhaka (Jatrabari)-Comilla (Mainamati)-Chittagong-Teknaf Road,447.893,9.8,1985.0,1.0,Chittagong,Chittagong,Cox's Bazar,Cox's Bazar - 2,20.9582222222222,92.2543055555555,bcs1,NAYA PARA BOX CULVERT,R,True,True
N1,448.391,Box Culvert,LRP444c,NOYA PARA CULVERT,1.2,A,114953,Dhaka (Jatrabari)-Comilla (Mainamati)-Chittagong-Teknaf Road,448.391,10.3,1987.0,1.0,Chittagong,Chittagong,Cox's Bazar,Cox's Bazar - 2,20.9530277777777,92.2565277777777,bcs1,NOYA PARA CULVERT,L,True,True
N1,448.926,RCC Girder Bridge,LRP445a,Noya Para Bridge,9.2,A,120545,Dhaka (Jatrabari)-Comilla (Mainamati)-Chittagong-Teknaf Road,448.926,7.4,1978.0,3.0,Chittagong,Chittagong,Cox's Bazar,Cox's Bazar - 2,21.0228882,92.2420274,road_precise,NOYA PARA BRIDGE,,True,True
N1,449.439,Box Culvert,LRP445d,JADIMORH BOX CULVERT,1.2,A,100903,Dhaka (Jatrabari)-Comilla (Mainamati)-Chittagong-Teknaf Road,449.439,10.3,1972.0,1.0,Chittagong,Chittagong,Cox's Bazar,Cox's Bazar - 2,20.9458888888888,92.2601388888888,bcs1,JADIMORH BOX CULVERT,,True,True
N1,449.7,RCC Girder Bridge,LRP446a,JADIMURA BRIDGE.,7.5,A,101089,Dhaka (Jatrabari)-Comilla (Mainamati)-Chittagong-Teknaf Road,449.7,7.3,1982.0,1.0,Chittagong,Chittagong,Cox's Bazar,Cox's Bazar - 2,20.9438055555555,92.2603333333333,bcs1,JADIMURA BRIDGE,,True,True
N1,450.446,RCC Girder Bridge,LRP446b,Umor khali Bridge,35.5,A,120549,Dhaka (Jatrabari)-Comilla (Mainamati)-Chittagong-Teknaf Road,450.446,7.3,1990.0,3.0,Chittagong,Chittagong,Cox's Bazar,Cox's Bazar - 2,20.9373888888888,92.2624444444444,bcs1,UMOR KHALI BRIDGE,,True,True
N1,450.599,Box Culvert,LRP446d,DONDO MIA BOX CULVERT,1.5,A,100900,Dhaka (Jatrabari)-Comilla (Mainamati)-Chittagong-Teknaf Road,450.599,10.3,1973.0,1.0,Chittagong,Chittagong,Cox's Bazar,Cox's Bazar - 2,20.9351944444444,92.2628055555555,bcs1,DONDO MIA BOX CULVERT,,True,True
N1,450.943,Box Culvert,LRP447b,DOMMO MIA BOX CULVERT,1.2,A,100894,Dhaka (Jatrabari)-Comilla (Mainamati)-Chittagong-Teknaf Road,450.943,10.3,1973.0,1.0,Chittagong,Chittagong,Cox's Bazar,Cox's Bazar - 2,20.9330555555555,92.2635277777777,bcs1,DOMMO MIA BOX CULVERT,,True,True
N1,452.561,RCC Girder Bridge,LRP448c,Domodia Bridge(1),13.5,A,120558,Dhaka (Jatrabari)-Comilla (Mainamati)-Chittagong-Teknaf Road,452.561,9.6,1967.0,1.0,Chittagong,Chittagong,Cox's Bazar,Cox's Bazar - 2,20.9942497,92.2545278,road_precise,DOMODIA BRIDGE,L,True,True
N1,452.624,RCC Girder Bridge,LRP449a,Domdomia Bridge(2),13.5,A,120562,Dhaka (Jatrabari)-Comilla (Mainamati)-Chittagong-Teknaf Road,452.624,7.3,1956.0,1.0,Chittagong,Chittagong,Cox's Bazar,Cox's Bazar - 2,20.9875274,92.2545556,road_precise,DOMDOMIA BRIDGE,R,True,True
N1,452.793,Slab Culvert,LRP449c,DONDOMIA,2.7,A,100926,Dhaka (Jatrabari)-Comilla (Mainamati)-Chittagong-Teknaf Road,452.793,10.3,1974.0,1.0,Chittagong,Chittagong,Cox's Bazar,Cox's Bazar - 2,20.9176944444444,92.2693888888888,bcs1,DONDOMIA,L,True,True
N1,454.219,Box Culvert,LRP450c,KARUNTON BOX CULVERT,1.2,A,100938,Dhaka (Jatrabari)-Comilla (Mainamati)-Chittagong-Teknaf Road,454.219,7.8,1987.0,1.0,Chittagong,Chittagong,Cox's Bazar,Cox's Bazar - 2,20.9068611111111,92.2766111111111,bcs1,KARUNTON BOX CULVERT,,True,True
N1,454.33,RCC Girder Bridge,LRP450d,KARUM TOLI SHOTHA (1),6.0,A,100943,Dhaka (Jatrabari)-Comilla (Mainamati)-Chittagong-Teknaf Road,454.33,7.3,1984.0,1.0,Chittagong,Chittagong,Cox's Bazar,Cox's Bazar - 2,20.9058611111111,92.2772222222222,bcs1,KARUM TOLI SHOTHA,L,True,True
N1,454.498,RCC Girder Bridge,LRP450e,SHOLO BANDOR TAKNAF,6.0,A,100945,Dhaka (Jatrabari)-Comilla (Mainamati)-Chittagong-Teknaf Road,454.498,7.35,1986.0,1.0,Chittagong,Chittagong,Cox's Bazar,Cox's Bazar - 2,20.9047777777777,92.278,bcs1,SHOLO BANDOR TAKNAF,L,True,True
N1,454.769,Slab Culvert,LRP451b,KARUMTOLI (3)BOX CULVERT,2.8,A,100954,Dhaka (Jatrabari)-Comilla (Mainamati)-Chittagong-Teknaf Road,454.769,10.2,1987.0,1.0,Chittagong,Chittagong,Cox's Bazar,Cox's Bazar - 2,20.9025833333333,92.2793611111111,bcs1,KARUMTOLI BOX CULVERT,L,True,True
N1,455.062,RCC Girder Bridge,LRP451c,Karumtoli(1) Bridge,33.7,A,120574,Dhaka (Jatrabari)-Comilla (Mainamati)-Chittagong-Teknaf Road,455.062,11.2,1972.0,1.0,Chittagong,Chittagong,Cox's Bazar,Cox's Bazar - 2,20.9126751559322,92.2727211220339,road_interpolate,KARUMTOLI BRIDGE,L,True,True
N1,455.206,Slab Culvert,LRP451e,KARUM TOLI BOX CULVERT,1.3,A,100966,Dhaka (Jatrabari)-Comilla (Mainamati)-Chittagong-Teknaf Road,455.206,11.3,1978.0,1.0,Chittagong,Chittagong,Cox's Bazar,Cox's Bazar - 2,20.8996111111111,92.2815,bcs1,KARUM TOLI BOX CULVERT,,True,True
N1,455.447,RCC Girder Bridge,LRP451h,KARUM TOLI RCC GIDER BRIDGE,10.6,A,100968,Dhaka (Jatrabari)-Comilla (Mainamati)-Chittagong-Teknaf Road,455.447,7.3,1972.0,1.0,Chittagong,Chittagong,Cox's Bazar,Cox's Bazar - 2,20.8979722222222,92.2833333333333,bcs1,KARUM TOLI RCC GIDER BRIDGE,L,True,True
N1,455.496,RCC Girder Bridge,LRP451i,Polashir Bridge,10.6,A,120578,Dhaka (Jatrabari)-Comilla (Mainamati)-Chittagong-Teknaf Road,455.496,10.3,1981.0,3.0,Chittagong,Chittagong,Cox's Bazar,Cox's Bazar - 2,20.909456906278,92.2747873291479,road_interpolate,POLASHIR BRIDGE,,True,True
N1,455.688,RCC Girder Bridge,LRP452a,BAROY TOLI RCC GIDER BRIDGE,30.0,A,100970,Dhaka (Jatrabari)-Comilla (Mainamati)-Chittagong-Teknaf Road,455.688,7.3,1972.0,3.0,Chittagong,Chittagong,Cox's Bazar,Cox's Bazar - 2,20.8974722222222,92.2852777777777,bcs1,BAROY TOLI RCC GIDER BRIDGE,,True,True
N1,455.765,Slab Culvert,LRP452c,BORY TOLI SLAB CULVERT,2.8,A,100913,Dhaka (Jatrabari)-Comilla (Mainamati)-Chittagong-Teknaf Road,455.765,10.9,1979.0,1.0,Chittagong,Chittagong,Cox's Bazar,Cox's Bazar - 2,20.8972222222222,92.2863888888889,bcs1,BORY TOLI SLAB CULVERT,,True,True
N1,455.975,Slab Culvert,LRP452d,BORYTOLI SLAB CULVERT,2.8,A,100912,Dhaka (Jatrabari)-Comilla (Mainamati)-Chittagong-Teknaf Road,455.975,10.3,1981.0,1.0,Chittagong,Chittagong,Cox's Bazar,Cox's Bazar - 2,20.8952222222222,92.2878611111111,bcs1,BORYTOLI SLAB CULVERT,,True,True
N1,456.287,RCC Girder Bridge,LRP452h,Baroytoli Bridge,8.3,A,120587,Dhaka (Jatrabari)-Comilla (Mainamati)-Chittagong-Teknaf Road,456.287,10.3,1973.0,1.0,Chittagong,Chittagong,Cox's Bazar,Cox's Bazar - 2,20.9036912639175,92.2786932329896,road_interpolate,BAROYTOLI BRIDGE,,True,True
N1,457.751,RCC Girder Bridge,LRP454a,NAITANG PARA RCC GIDER BRIDGE,9.0,A,100897,Dhaka (Jatrabari)-Comilla (Mainamati)-Chittagong-Teknaf Road,457.751,7.4,1982.0,1.0,Chittagong,Chittagong,Cox's Bazar,Cox's Bazar - 2,20.8859444444444,92.2992777777777,bcs1,NAITANG PARA RCC GIDER BRIDGE,,True,True
N1,458.213,RCC Girder Bridge,LRP454b,Naitom Para(4) Bridge,9.0,A,120595,Dhaka (Jatrabari)-Comilla (Mainamati)-Chittagong-Teknaf Road,458.213,7.3,1972.0,3.0,Chittagong,Chittagong,Cox's Bazar,Cox's Bazar - 2,20.9482774,92.2589167,road_precise,NAITOM PARA BRIDGE,,True,True
N1,459.681,Box Culvert,LRP456a,BUS STAND TEKNAF BOX CULVERT,1.5,A,100891,Dhaka (Jatrabari)-Comilla (Mainamati)-Chittagong-Teknaf Road,459.681,10.3,1991.0,1.0,Chittagong,Chittagong,Cox's Bazar,Cox's Bazar - 2,20.8689444444444,92.2982222222222,bcs1,BUS STAND TEKNAF BOX CULVERT,,True,True
N2,12.18,Box Culvert,LRP012f,SHAWGHAT BOX CULVERT,3.9,A,103167,Dhaka (Katchpur)-Bhairab-Jagadishpur-Shaistaganj-Sylhet-Tamabil-Jaflong Road,12.18,15.63,2004.0,1.0,Dhaka,Dhaka,Narayanganj,Narayanganj-1,23.7891944444444,90.5742222222222,bcs1,SHAWGHAT BOX CULVERT,,True,True
N2,15.677,Box Culvert,LRP016a,BANTI BOX CULVERT,3.4,A,109189,Dhaka (Katchpur)-Bhairab-Jagadishpur-Shaistaganj-Sylhet-Tamabil-Jaflong Road,15.677,15.75,2004.0,1.0,Dhaka,Dhaka,Narayanganj,Narayanganj-1,23.8140555555555,90.5946111111111,bcs1,BANTI BOX CULVERT,,True,True
N2,17.966,Box Culvert,LRP018a,PUTCHRUCLAI CULVERT,4.5,A,103160,Dhaka (Katchpur)-Bhairab-Jagadishpur-Shaistaganj-Sylhet-Tamabil-Jaflong Road,17.966,15.3,2003.0,1.0,Dhaka,Dhaka,Narsingdi,Narsingdi,23.8295555555555,90.6092222222222,bcs1,PUTCHRUCLAI CULVERT,,True,True
N2,19.895,Box Culvert,LRP020a,FURINGDIA BOX CULVERT,8.3,A,103178,Dhaka (Katchpur)-Bhairab-Jagadishpur-Shaistaganj-Sylhet-Tamabil-Jaflong Road,19.895,15.7,2004.0,2.0,Dhaka,Dhaka,Narsingdi,Narsingdi,23.8419722222222,90.6224722222222,bcs1,FURINGDIA BOX CULVERT,,True,True
N2,21.168,Box Culvert,LRP021b,PURINDHA BOX CULVERT,8.0,A,103183,Dhaka (Katchpur)-Bhairab-Jagadishpur-Shaistaganj-Sylhet-Tamabil-Jaflong Road,21.168,15.8,2003.0,2.0,Dhaka,Dhaka,Narsingdi,Narsingdi,23.8496944444444,90.6315555555555,bcs1,PURINDHA BOX CULVERT,,True,True
N2,23.556,Box Culvert,LRP024a,BAGBARI BOX CULVERT,4.0,A,103188,Dhaka (Katchpur)-Bhairab-Jagadishpur-Shaistaganj-Sylhet-Tamabil-Jaflong Road,23.556,15.76,2004.0,1.0,Dhaka,Dhaka,Narsingdi,Narsingdi,23.8551666666666,90.6522777777777,bcs1,BAGBARI BOX CULVERT,,True,True
N2,24.2,Box Culvert,LRP024b,RAINADI BOX CULVERT,4.0,A,103193,Dhaka (Katchpur)-Bhairab-Jagadishpur-Shaistaganj-Sylhet-Tamabil-Jaflong Road,24.2,15.8,2003.0,1.0,Dhaka,Dhaka,Narsingdi,Narsingdi,23.8548888888888,90.6586944444444,bcs1,RAINADI BOX CULVERT,,True,True
N2,24.708,Box Culvert,LRP025a,KANDA PARA BOX CULVERT,4.0,A,103196,Dhaka (Katchpur)-Bhairab-Jagadishpur-Shaistaganj-Sylhet-Tamabil-Jaflong Road,24.708,15.8,2003.0,1.0,Dhaka,Dhaka,Narsingdi,Narsingdi,23.8544444444444,90.6634722222222,bcs1,KANDA PARA BOX CULVERT,,True,True
N2,25.107,Box Culvert,LRP025b,NAWPARA BOX CULVERT,2.0,A,103200,Dhaka (Katchpur)-Bhairab-Jagadishpur-Shaistaganj-Sylhet-Tamabil-Jaflong Road,25.107,15.4,2003.0,1.0,Dhaka,Dhaka,Narsingdi,Narsingdi,23.8539166666666,90.6673055555555,bcs1,NAWPARA BOX CULVERT,,True,True
N2,28.442,Box Culvert,LRP029a,KURIRPARA BOX CULVERT,2.5,A,103208,Dhaka (Katchpur)-Bhairab-Jagadishpur-Shaistaganj-Sylhet-Tamabil-Jaflong Road,28.442,15.4,2003.0,1.0,Dhaka,Dhaka,Narsingdi,Narsingdi,23.8780555555555,90.6666111111111,bcs1,KURIRPARA BOX CULVERT,,True,True
N2,28.943,Box Culvert,LRP029b,CHAITABOR BOX CULVERT,2.5,A,103211,Dhaka (Katchpur)-Bhairab-Jagadishpur-Shaistaganj-Sylhet-Tamabil-Jaflong Road,28.943,15.0,2003.0,1.0,Dhaka,Dhaka,Narsingdi,Narsingdi,23.8821388888888,90.6665833333333,bcs1,CHAITABOR BOX CULVERT,,True,True
N2,30.514,PC Girder Bridge,LRP031c,Panchdona Bridge,31.72,A,119896,Dhaka (Katchpur)-Bhairab-Jagadishpur-Shaistaganj-Sylhet-Tamabil-Jaflong Road,30.514,15.54,2003.0,1.0,Dhaka,Dhaka,Narsingdi,Narsingdi,23.8943052,90.6717771,road_precise,PANCHDONA BRIDGE,,True,True
N2,32.969,Box Culvert,LRP033a,UTTAR BAYANDA CULVERT,3.6,A,103185,Dhaka (Katchpur)-Bhairab-Jagadishpur-Shaistaganj-Sylhet-Tamabil-Jaflong Road,32.969,15.75,1989.0,1.0,Dhaka,Dhaka,Narsingdi,Narsingdi,23.9048611111111,90.6851111111111,bcs1,UTTAR BAYANDA CULVERT,,True,True
N2,35.205,Box Culvert,LRP035b,BAGDI BOX CULVERT,12.7,A,103170,Dhaka (Katchpur)-Bhairab-Jagadishpur-Shaistaganj-Sylhet-Tamabil-Jaflong Road,35.205,15.7,2003.0,3.0,Dhaka,Dhaka,Narsingdi,Narsingdi,23.9130277777777,90.6893055555555,bcs1,BAGDI BOX CULVERT,,True,True
N2,35.565,Box Culvert,LRP036a,BAGDI - 2 CULVERT,3.0,A,103172,Dhaka (Katchpur)-Bhairab-Jagadishpur-Shaistaganj-Sylhet-Tamabil-Jaflong Road,35.565,15.5,2004.0,1.0,Dhaka,Dhaka,Narsingdi,Narsingdi,23.9183611111111,90.6939444444444,bcs1,BAGDI - CULVERT,R,True,True
N2,36.488,PC Girder Bridge,LRP037a,BASAIL BRIDGE OVER ROAD,25.0,A,103174,Dhaka (Katchpur)-Bhairab-Jagadishpur-Shaistaganj-Sylhet-Tamabil-Jaflong Road,36.488,10.48,2004.0,1.0,Dhaka,Dhaka,Narsingdi,Narsingdi,23.9241944444444,90.6990555555555,bcs1,BASAIL BRIDGE OVER ROAD,,True,True
N2,36.488,PC Girder Bridge,LRP037a,Basail Bridge,27.4,A,119898,Dhaka (Katchpur)-Bhairab-Jagadishpur-Shaistaganj-Sylhet-Tamabil-Jaflong Road,36.488,9.2,1974.0,3.0,Dhaka,Dhaka,Narsingdi,Narsingdi,23.9307216,90.7045833,road_precise,BASAIL BRIDGE,,True,True
N2,37.61,RCC Girder Bridge,LRP038a,Bala Nagar Bridge,61.3,A,119899,Dhaka (Katchpur)-Bhairab-Jagadishpur-Shaistaganj-Sylhet-Tamabil-Jaflong Road,37.61,15.8,2002.0,3.0,Dhaka,Dhaka,Narsingdi,Narsingdi,23.9390552,90.7100278,road_precise,BALA NAGAR BRIDGE,R,True,True
N2,38.015,Box Culvert,LRP038c,KARAR CHAR CULVERT,3.0,A,103184,Dhaka (Katchpur)-Bhairab-Jagadishpur-Shaistaganj-Sylhet-Tamabil-Jaflong Road,38.015,15.85,2004.0,1.0,Dhaka,Dhaka,Narsingdi,Narsingdi,23.9427222222222,90.7099166666666,bcs1,KARAR CHAR CULVERT,,True,True
N2,39.241,Box Culvert,LRP039c,NAGOR BARI CULVERT,5.5,A,103190,Dhaka (Katchpur)-Bhairab-Jagadishpur-Shaistaganj-Sylhet-Tamabil-Jaflong Road,39.241,15.5,2002.0,2.0,Dhaka,Dhaka,Narsingdi,Narsingdi,23.9528055555555,90.7148333333333,bcs1,NAGOR BARI CULVERT,,True,True
N2,39.589,Box Culvert,LRP040a,PATUAR PAR CULVERT,3.4,A,103191,Dhaka (Katchpur)-Bhairab-Jagadishpur-Shaistaganj-Sylhet-Tamabil-Jaflong Road,39.589,15.9,2003.0,1.0,Dhaka,Dhaka,Narsingdi,Narsingdi,23.9555277777777,90.7162777777777,bcs1,PATUAR PAR CULVERT,,True,True
N2,40.819,Box Culvert,LRP041b,SAYEA NAGAR (2) CULVERT,3.0,A,103192,Dhaka (Katchpur)-Bhairab-Jagadishpur-Shaistaganj-Sylhet-Tamabil-Jaflong Road,40.819,15.7,2002.0,1.0,Dhaka,Dhaka,Narsingdi,Narsingdi,23.9658055555555,90.7218055555555,bcs1,SAYEA NAGAR CULVERT,R,True,True
N2,41.375,Box Culvert,LRP042a,SAYED NAGOR CULVERT,1.8,A,103199,Dhaka (Katchpur)-Bhairab-Jagadishpur-Shaistaganj-Sylhet-Tamabil-Jaflong Road,41.375,15.55,2004.0,1.0,Dhaka,Dhaka,Narsingdi,Narsingdi,23.97,90.7244722222222,bcs1,SAYED NAGOR CULVERT,,True,True
