road,km,type,LRPName,name,length,condition,structureNr,roadName,chainage,width,constructionYear,spans,zone,circle,division,sub-division,lat,lon,EstimatedLoc
N1,1.8,Box Culvert,LRP001a,.,11.3,A,117861,Dhaka (Jatrabari)-Comilla (Mainamati)-Chittagong-Teknaf Road,1.8,19.5,2005.0,2.0,Dhaka,Dhaka,Narayanganj,Narayanganj-1,23.69873866,90.4588610799999,interpolate
N1,4.925,Box Culvert,LRP004b,.,6.6,A,117862,Dhaka (Jatrabari)-Comilla (Mainamati)-Chittagong-Teknaf Road,4.925,35.4,2006.0,1.0,Dhaka,Dhaka,Narayanganj,Narayanganj-1,23.6946638363636,90.4877749181818,interpolate
N1,8.976,PC Girder Bridge,LRP008b,Kanch pur Bridge.,394.23,A,119889,Dhaka (Jatrabari)-Comilla (Mainamati)-Chittagong-Teknaf Road,8.976,,,,Dhaka,Dhaka,Narayanganj,Narayanganj-1,23.7050598925675,90.5232141463513,interpolate
N1,10.88,Box Culvert,LRP010b,NOYAPARA CULVERT,6.3,A,112531,Dhaka (Jatrabari)-Comilla (Mainamati)-Chittagong-Teknaf Road,10.88,12.2,1992.0,2.0,Dhaka,Dhaka,Narayanganj,Vitikandi,23.6943906141361,90.5375740774869,interpolate
N1,10.897,Box Culvert,LRP010c,ADUPUR CULVERT,6.3,A,112532,Dhaka (Jatrabari)-Comilla (Mainamati)-Chittagong-Teknaf Road,10.897,12.2,1984.0,2.0,Dhaka,Dhaka,Narayanganj,Vitikandi,23.6943023869158,90.5377073719626,interpolate
N1,11.296,Box Culvert,LRP011a,NAYABARI KASPUR BOX CULVERT,8.3,A,101110,Dhaka (Jatrabari)-Comilla (Mainamati)-Chittagong-Teknaf Road,11.296,21.45,1986.0,2.0,Dhaka,Dhaka,Narayanganj,Vitikandi,23.6923601518691,90.5409183897196,interpolate
N1,12.239,Box Culvert,LRP012a,KHAS PARA BOX CULVERT,9.3,A,101117,Dhaka (Jatrabari)-Comilla (Mainamati)-Chittagong-Teknaf Road,12.239,21.0,1986.0,2.0,Dhaka,Dhaka,Narayanganj,Vitikandi,23.6884123260204,90.5485585290816,interpolate
N1,12.253,Box Culvert,LRP012b,DAWAN BAG BOX CULVERT,6.1,A,101119,Dhaka (Jatrabari)-Comilla (Mainamati)-Chittagong-Teknaf Road,12.253,20.6,1987.0,2.0,Dhaka,Dhaka,Narayanganj,Vitikandi,23.6883197331632,90.548649807653,interpolate
N1,12.66,PC Girder Bridge,LRP013a,Madanpur Bridge.(L),27.5,A,119897,Dhaka (Jatrabari)-Comilla (Mainamati)-Chittagong-Teknaf Road,12.66,,,,Dhaka,Dhaka,Narayanganj,Vitikandi,23.685583027027,90.551207981081,interpolate
N1,12.66,PC Girder Bridge,LRP013a,MADAN PUR (R),26.3,A,109841,Dhaka (Jatrabari)-Comilla (Mainamati)-Chittagong-Teknaf Road,12.66,9.2,2003.0,1.0,Dhaka,Dhaka,Narayanganj,Vitikandi,23.685583027027,90.551207981081,interpolate
N1,12.66,PC Girder Bridge,LRP013a,MADANPUR BRIDGE(L),26.3,A,109838,Dhaka (Jatrabari)-Comilla (Mainamati)-Chittagong-Teknaf Road,12.66,9.2,2003.0,1.0,Dhaka,Dhaka,Narayanganj,Vitikandi,23.685583027027,90.551207981081,interpolate
N1,12.688,PC Girder Bridge,LRP013b,Madanpur Bridge(R),27.5,A,119900,Dhaka (Jatrabari)-Comilla (Mainamati)-Chittagong-Teknaf Road,12.688,,,,Dhaka,Dhaka,Narayanganj,Vitikandi,23.6853619779342,90.5513591765258,interpolate
N1,13.574,Box Culvert,LRP014a,KAWTALA BOX CULVERT,11.9,A,109794,Dhaka (Jatrabari)-Comilla (Mainamati)-Chittagong-Teknaf Road,13.574,22.4,2003.0,2.0,Dhaka,Dhaka,Narayanganj,Vitikandi,23.6778035,90.5558194349999,interpolate
N1,17.222,PC Girder Bridge,LRP018b,Darikandi Bridge (R),20.45,A,119926,Dhaka (Jatrabari)-Comilla (Mainamati)-Chittagong-Teknaf Road,17.222,,,,Dhaka,Dhaka,Narayanganj,Vitikandi,23.65397226,90.57741042,interpolate
N1,17.222,PC Girder Bridge,LRP018a,Darikandi Bridge (L),20.5,A,119921,Dhaka (Jatrabari)-Comilla (Mainamati)-Chittagong-Teknaf Road,17.222,,,,Dhaka,Dhaka,Narayanganj,Vitikandi,23.65397226,90.57741042,interpolate
N1,18.093,PC Girder Bridge,LRP018c,Sonakhal Bridge(L),25.5,A,119933,Dhaka (Jatrabari)-Comilla (Mainamati)-Chittagong-Teknaf Road,18.093,,,,Dhaka,Dhaka,Narayanganj,Vitikandi,23.6497543993548,90.5845490085483,interpolate
N1,19.76,Box Culvert,LRP020a,KRIBORDI BOX CULVERT,6.0,A,109817,Dhaka (Jatrabari)-Comilla (Mainamati)-Chittagong-Teknaf Road,19.76,21.0,2001.0,1.0,Dhaka,Dhaka,Narayanganj,Vitikandi,23.6379543715384,90.5936673976923,interpolate
N1,21.184,PC Girder Bridge,LRP021c,Marikhali Bridge(L),86.92,A,119944,Dhaka (Jatrabari)-Comilla (Mainamati)-Chittagong-Teknaf Road,21.184,,,,Dhaka,Dhaka,Narayanganj,Vitikandi,23.6284668507692,90.6023015723077,interpolate
N1,21.184,PC Girder Bridge,LRP021d,Marikhali Bridge(R),89.75,A,119948,Dhaka (Jatrabari)-Comilla (Mainamati)-Chittagong-Teknaf Road,21.184,,,,Dhaka,Dhaka,Narayanganj,Vitikandi,23.6284668507692,90.6023015723077,interpolate
N1,21.184,PC Girder Bridge,LRP021c,MARIKHALL BRIDGE,89.2,A,101103,Dhaka (Jatrabari)-Comilla (Mainamati)-Chittagong-Teknaf Road,21.184,9.2,2000.0,3.0,Dhaka,Dhaka,Narayanganj,Vitikandi,23.6284668507692,90.6023015723077,interpolate
N1,22.596,PC Girder Bridge,LRP023a,ASHIR CHAR (Right),224.8,A,109820,Dhaka (Jatrabari)-Comilla (Mainamati)-Chittagong-Teknaf Road,22.596,9.15,2004.0,9.0,Dhaka,Dhaka,Narayanganj,Vitikandi,23.6176407964705,90.6095506105882,interpolate
N1,23.081,PC Girder Bridge,LRP023d,Asharirchar-2 Bridge.(R),119.32,A,119964,Dhaka (Jatrabari)-Comilla (Mainamati)-Chittagong-Teknaf Road,23.081,,,,Dhaka,Dhaka,Narayanganj,Vitikandi,23.613587384385,90.6109029561497,interpolate
N1,23.081,PC Girder Bridge,LRP023c,Ashariachar-2 Bridge.(L),119.48,A,119961,Dhaka (Jatrabari)-Comilla (Mainamati)-Chittagong-Teknaf Road,23.081,,,,Dhaka,Dhaka,Narayanganj,Vitikandi,23.613587384385,90.6109029561497,interpolate
N1,23.081,PC Girder Bridge,LRP023c,ASHARIR CHAR (L),120.1,A,109796,Dhaka (Jatrabari)-Comilla (Mainamati)-Chittagong-Teknaf Road,23.081,9.5,2000.0,4.0,Dhaka,Dhaka,Narayanganj,Vitikandi,23.613587384385,90.6109029561497,interpolate
N1,24.393,PC Girder Bridge,LRP024a,Meghna Bridge,924.85,A,119967,Dhaka (Jatrabari)-Comilla (Mainamati)-Chittagong-Teknaf Road,24.393,,,,Dhaka,Dhaka,Narayanganj,Vitikandi,23.6027595885583,90.6155316965675,interpolate
N1,26.115,Box Culvert,LRP026a,TATULTALA CULVERT,5.6,A,101132,Dhaka (Jatrabari)-Comilla (Mainamati)-Chittagong-Teknaf Road,26.115,10.3,1989.0,1.0,Dhaka,Dhaka,Narayanganj,Vitikandi,23.5929818827893,90.6279699370919,interpolate
N1,26.452,Box Culvert,LRP026b,BAILAKANDI CULVERT,5.5,A,101142,Dhaka (Jatrabari)-Comilla (Mainamati)-Chittagong-Teknaf Road,26.452,20.9,1989.0,1.0,Dhaka,Dhaka,Narayanganj,Vitikandi,23.5908088547468,90.6302368598101,interpolate
N1,27.12,Box Culvert,LRP027a,MALUAKANDI CULVEDRT,5.6,A,101150,Dhaka (Jatrabari)-Comilla (Mainamati)-Chittagong-Teknaf Road,27.12,21.0,1989.0,1.0,Dhaka,Dhaka,Narayanganj,Vitikandi,23.58631812254,90.6345094207093,interpolate
N1,28.315,PC Girder Bridge,LRP028b,Bhater char Bridge (L),172.1,A,119976,Dhaka (Jatrabari)-Comilla (Mainamati)-Chittagong-Teknaf Road,28.315,,,,Dhaka,Dhaka,Narayanganj,Vitikandi,23.5779800248475,90.6419193089939,interpolate
N1,28.315,PC Girder Bridge,LRP028a,Bhater char Bridge (R),173.25,A,119973,Dhaka (Jatrabari)-Comilla (Mainamati)-Chittagong-Teknaf Road,28.315,,,,Dhaka,Dhaka,Narayanganj,Vitikandi,23.5779800248475,90.6419193089939,interpolate
N1,28.315,PC Girder Bridge,LRP028a,BHATIR CHAR BRIDGE,163.5,A,101101,Dhaka (Jatrabari)-Comilla (Mainamati)-Chittagong-Teknaf Road,28.315,9.2,2000.0,6.0,Dhaka,Dhaka,Narayanganj,Vitikandi,23.5779800248475,90.6419193089939,interpolate
N1,29.138,PC Girder Bridge,LRP029a,Anarpara Bridge (L),29.85,A,119977,Dhaka (Jatrabari)-Comilla (Mainamati)-Chittagong-Teknaf Road,29.138,,,,Dhaka,Dhaka,Narayanganj,Vitikandi,23.5716306256965,90.6454159236842,interpolate
N1,29.138,PC Girder Bridge,LRP029b,Anarpara Bridge (R),29.77,A,119980,Dhaka (Jatrabari)-Comilla (Mainamati)-Chittagong-Teknaf Road,29.138,,,,Dhaka,Dhaka,Narayanganj,Vitikandi,23.5716306256965,90.6454159236842,interpolate
N1,29.138,PC Girder Bridge,LRP029a,ANARPUR BRIDGE(R),29.0,A,101108,Dhaka (Jatrabari)-Comilla (Mainamati)-Chittagong-Teknaf Road,29.138,9.3,2004.0,1.0,Dhaka,Dhaka,Narayanganj,Vitikandi,23.5716306256965,90.6454159236842,interpolate
N1,29.138,PC Girder Bridge,LRP029a,ANAR PURA BRIDGE(L),29.0,A,101104,Dhaka (Jatrabari)-Comilla (Mainamati)-Chittagong-Teknaf Road,29.138,9.3,2004.0,1.0,Dhaka,Dhaka,Narayanganj,Vitikandi,23.5716306256965,90.6454159236842,interpolate
N1,29.842,Box Culvert,LRP030a,VITIKANDA - ANAR PUR CULVERT,34.7,A,101113,Dhaka (Jatrabari)-Comilla (Mainamati)-Chittagong-Teknaf Road,29.842,21.0,1992.0,7.0,Dhaka,Dhaka,Narayanganj,Vitikandi,23.5660033956521,90.6486237247282,interpolate
N1,30.908,PC Girder Bridge,LRP031a,Alipur bridge(R),27.4,A,120009,Dhaka (Jatrabari)-Comilla (Mainamati)-Chittagong-Teknaf Road,30.908,,,,Dhaka,Dhaka,Narayanganj,Vitikandi,23.5591910296296,90.6557475703703,interpolate
N1,30.908,PC Girder Bridge,LRP031a,Alipur bridge(L),27.4,A,120012,Dhaka (Jatrabari)-Comilla (Mainamati)-Chittagong-Teknaf Road,30.908,,,,Dhaka,Dhaka,Narayanganj,Vitikandi,23.5591910296296,90.6557475703703,interpolate
N1,30.908,PC Girder Bridge,LRP031a,ALI PURA P.C BRIDGE (RIGHT),26.3,A,101120,Dhaka (Jatrabari)-Comilla (Mainamati)-Chittagong-Teknaf Road,30.908,9.2,2004.0,1.0,Dhaka,Dhaka,Narayanganj,Vitikandi,23.5591910296296,90.6557475703703,interpolate
N1,31.472,PC Girder Bridge,LRP032a,Bhaber char Bridge(R),29.85,A,120017,Dhaka (Jatrabari)-Comilla (Mainamati)-Chittagong-Teknaf Road,31.472,,,,Dhaka,Dhaka,Narayanganj,Vitikandi,23.5557082901265,90.6597414245569,interpolate
N1,31.472,PC Girder Bridge,LRP032b,Bhaber char Bridge(L),29.83,A,120022,Dhaka (Jatrabari)-Comilla (Mainamati)-Chittagong-Teknaf Road,31.472,,,,Dhaka,Dhaka,Narayanganj,Vitikandi,23.5557082901265,90.6597414245569,interpolate
N1,31.472,PC Girder Bridge,LRP032a,VOBAR CHAR (L),29.0,A,109831,Dhaka (Jatrabari)-Comilla (Mainamati)-Chittagong-Teknaf Road,31.472,9.2,2003.0,1.0,Dhaka,Dhaka,Narayanganj,Vitikandi,23.5557082901265,90.6597414245569,interpolate
N1,31.472,PC Girder Bridge,LRP032a,VOBAR CHAR BRIDGE(R),29.0,A,109826,Dhaka (Jatrabari)-Comilla (Mainamati)-Chittagong-Teknaf Road,31.472,9.2,2003.0,1.0,Dhaka,Dhaka,Narayanganj,Vitikandi,23.5557082901265,90.6597414245569,interpolate
N1,32.121,PC Girder Bridge,LRP032d,Baushia Bridge(R),29.87,A,120025,Dhaka (Jatrabari)-Comilla (Mainamati)-Chittagong-Teknaf Road,32.121,,,,Dhaka,Dhaka,Narayanganj,Vitikandi,23.5517421907216,90.6643538752577,interpolate
N1,32.121,PC Girder Bridge,LRP032e,Baushia Bridge(L),29.9,A,120026,Dhaka (Jatrabari)-Comilla (Mainamati)-Chittagong-Teknaf Road,32.121,,,,Dhaka,Dhaka,Narayanganj,Vitikandi,23.5517421907216,90.6643538752577,interpolate
N1,32.121,PC Girder Bridge,LRP032d,BOBARCHAR BRIDGE(L),28.9,A,109825,Dhaka (Jatrabari)-Comilla (Mainamati)-Chittagong-Teknaf Road,32.121,9.2,2004.0,1.0,Dhaka,Dhaka,Narayanganj,Vitikandi,23.5517421907216,90.6643538752577,interpolate
N1,32.121,PC Girder Bridge,LRP032d,BOBAIRCHAR BRIDGE(R),28.9,A,109832,Dhaka (Jatrabari)-Comilla (Mainamati)-Chittagong-Teknaf Road,32.121,9.2,2004.0,1.0,Dhaka,Dhaka,Narayanganj,Vitikandi,23.5517421907216,90.6643538752577,interpolate
N1,32.777,Box Culvert,LRP033a,PURRANBUICHE BOX CULVERT,9.1,A,109843,Dhaka (Jatrabari)-Comilla (Mainamati)-Chittagong-Teknaf Road,32.777,21.0,2002.0,2.0,Dhaka,Dhaka,Narayanganj,Vitikandi,23.5477377446428,90.6690554098214,interpolate
N1,32.796,Box Culvert,LRP033b,NOYAPARA,5.2,A,112533,Dhaka (Jatrabari)-Comilla (Mainamati)-Chittagong-Teknaf Road,32.796,12.2,1992.0,2.0,Dhaka,Dhaka,Narayanganj,Vitikandi,23.5476246437499,90.669192065625,interpolate
N1,33.591,PC Girder Bridge,LRP034a,Madhya Baushia Bridge(L),72.49,A,120028,Dhaka (Jatrabari)-Comilla (Mainamati)-Chittagong-Teknaf Road,33.591,9.15,2000.0,2.0,Dhaka,Dhaka,Narayanganj,Vitikandi,23.54268543125,90.6748292125,interpolate
N1,33.591,PC Girder Bridge,LRP034a,MADHAYA BAUSHIA BRIDGE(R),59.2,A,109845,Dhaka (Jatrabari)-Comilla (Mainamati)-Chittagong-Teknaf Road,33.591,9.2,2000.0,2.0,Dhaka,Dhaka,Narayanganj,Vitikandi,23.54268543125,90.6748292125,interpolate
N1,33.591,PC Girder Bridge,LRP034a,MADHAYA BAUSHIA(L),70.0,A,109839,Dhaka (Jatrabari)-Comilla (Mainamati)-Chittagong-Teknaf Road,33.591,9.2,2000.0,2.0,Dhaka,Dhaka,Narayanganj,Vitikandi,23.54268543125,90.6748292125,interpolate
N1,33.591,PC Girder Bridge,LRP034b,Madhya Baushia Bridge(R),59.83,A,120029,Dhaka (Jatrabari)-Comilla (Mainamati)-Chittagong-Teknaf Road,33.591,10.15,2000.0,2.0,Dhaka,Dhaka,Narayanganj,Vitikandi,23.54268543125,90.6748292125,interpolate
N1,35.181,Box Culvert,LRP035a,.,9.5,A,117863,Dhaka (Jatrabari)-Comilla (Mainamati)-Chittagong-Teknaf Road,35.181,21.2,2000.0,2.0,Dhaka,Dhaka,Narayanganj,Vitikandi,23.5327751898617,90.6858701078341,interpolate
N1,35.408,PC Girder Bridge,LRP036a,Baushia bazar Bridge( L ),25.45,A,120030,Dhaka (Jatrabari)-Comilla (Mainamati)-Chittagong-Teknaf Road,35.408,,,,Dhaka,Dhaka,Narayanganj,Vitikandi,23.5313996605222,90.68744892596,interpolate
N1,35.408,PC Girder Bridge,LRP036b,Baushia bazar Bridge ( R ),25.45,A,120031,Dhaka (Jatrabari)-Comilla (Mainamati)-Chittagong-Teknaf Road,35.408,,,,Dhaka,Dhaka,Narayanganj,Vitikandi,23.5313996605222,90.68744892596,interpolate
N1,35.707,Box Culvert,LRP036c,CHAR BOUSHEA (2),8.4,A,101125,Dhaka (Jatrabari)-Comilla (Mainamati)-Chittagong-Teknaf Road,35.707,21.1,1998.0,2.0,Dhaka,Dhaka,Narayanganj,Vitikandi,23.5301519626506,90.6897951837349,interpolate
N1,37.01,PC Box,LRP037a,Daudkandi Bridge.,1408.8,A,120033,Dhaka (Jatrabari)-Comilla (Mainamati)-Chittagong-Teknaf Road,37.01,,,,Dhaka,Dhaka,Narayanganj,Vitikandi,23.5303844733,90.7024402743,interpolate
N1,48.384,RCC Girder Bridge,LRP049a,Ginlatoly bridge,15.9,A,120392,Dhaka (Jatrabari)-Comilla (Mainamati)-Chittagong-Teknaf Road,48.384,,,,Comilla,Comilla,Comilla,Gouripur,23.5318234765,90.8110155135,interpolate
N1,50.558,Box Culvert,LRP051a,RAIPUR BOX CULVERT,12.2,A,101147,Dhaka (Jatrabari)-Comilla (Mainamati)-Chittagong-Teknaf Road,50.558,11.6,1988.0,2.0,Comilla,Comilla,Comilla,Gouripur,23.5329743291,90.8309774761999,interpolate
N1,63.538,Box Culvert,LRP064c,SONAPUR BOX CULVERT,3.0,A,101169,Dhaka (Jatrabari)-Comilla (Mainamati)-Chittagong-Teknaf Road,63.538,12.4,1992.0,1.0,Comilla,Comilla,Comilla,Gouripur,23.5013551924,90.9473844088999,interpolate
N1,68.04,Box Culvert,LRP068a,MILL GHAT BOX CULVERT,4.5,A,101175,Dhaka (Jatrabari)-Comilla (Mainamati)-Chittagong-Teknaf Road,68.04,8.3,1991.0,1.0,Comilla,Comilla,Comilla,Gouripur,23.4932728146,90.9887200416,interpolate
N1,76.481,Slab Culvert,LRP077a,NIMSHAR SLAB CULVERT,1.5,A,101189,Dhaka (Jatrabari)-Comilla (Mainamati)-Chittagong-Teknaf Road,76.481,12.3,1999.0,1.0,Comilla,Comilla,Comilla,Gouripur,23.480613086,91.0674097692,interpolate
N1,82.437,Box Culvert,LRP083a,TIPRA BAZAR BOX CULVERT,1.4,A,101200,Dhaka (Jatrabari)-Comilla (Mainamati)-Chittagong-Teknaf Road,82.437,12.2,1993.0,1.0,Comilla,Comilla,Comilla,Gouripur,23.4794083880733,91.1238920825688,interpolate
N1,82.989,Slab Culvert,LRP083b,AMTOLI SLAB CULVERT,2.9,A,101202,Dhaka (Jatrabari)-Comilla (Mainamati)-Chittagong-Teknaf Road,82.989,12.0,1985.0,1.0,Comilla,Comilla,Comilla,Comilla,23.479544924,91.129047144,interpolate
N1,87.713,RCC Girder Bridge,LRP088a,DHANPUR RCC GIDER BRIDGE,23.4,A,101205,Dhaka (Jatrabari)-Comilla (Mainamati)-Chittagong-Teknaf Road,87.713,9.2,1988.0,3.0,Comilla,Comilla,Comilla,Comilla,23.4436339598272,91.1493668151188,interpolate
N1,97.257,RCC Girder Bridge,LRP098a,RAZAPARA RCC GIDER BRIDGE,27.9,A,101218,Dhaka (Jatrabari)-Comilla (Mainamati)-Chittagong-Teknaf Road,97.257,9.2,1995.0,3.0,Comilla,Comilla,Comilla,Comilla,23.3976518197887,91.2234221346859,interpolate
N1,100.938,RCC Girder Bridge,LRP101a,Suagazi Bridge.,30.48,A,120403,Dhaka (Jatrabari)-Comilla (Mainamati)-Chittagong-Teknaf Road,100.938,,,,Comilla,Comilla,Comilla,Comilla,23.3713647755,91.2450175414999,interpolate
N1,100.938,RCC Girder Bridge,LRP101a,SUAGAZI RCC GIDER BRIDGE,30.4,A,101220,Dhaka (Jatrabari)-Comilla (Mainamati)-Chittagong-Teknaf Road,100.938,9.2,1990.0,4.0,Comilla,Comilla,Comilla,Comilla,23.3713647755,91.2450175414999,interpolate
N1,104.753,Box Culvert,LRP105a,CHANSIRI BOXCUIVERT,14.3,A,101225,Dhaka (Jatrabari)-Comilla (Mainamati)-Chittagong-Teknaf Road,104.753,8.5,1974.0,3.0,Comilla,Comilla,Comilla,Comilla,23.342671472,91.264485636,interpolate
N1,106.519,Box Culvert,LRP107a,MIABAZAR BOX CULVERT,24.0,A,101227,Dhaka (Jatrabari)-Comilla (Mainamati)-Chittagong-Teknaf Road,106.519,10.4,1974.0,5.0,Comilla,Comilla,Comilla,Comilla,23.3301462324,91.2748792824,interpolate
N1,108.125,Box Culvert,LRP109a,NOYA BAZER BOX CULVERT,9.2,A,101230,Dhaka (Jatrabari)-Comilla (Mainamati)-Chittagong-Teknaf Road,108.125,11.5,1990.0,2.0,Comilla,Comilla,Comilla,Comilla,23.3180696869138,91.2830867321701,interpolate
N1,110.551,Box Culvert,LRP111a,LALGORE BEZER CULVERT,3.2,A,101135,Dhaka (Jatrabari)-Comilla (Mainamati)-Chittagong-Teknaf Road,110.551,12.2,1986.0,1.0,Comilla,Comilla,Comilla,Comilla,23.2979675271676,91.2910141369942,interpolate
N1,111.509,Box Culvert,LRP112a,SUPUYA BOX CULVERT,13.4,A,101138,Dhaka (Jatrabari)-Comilla (Mainamati)-Chittagong-Teknaf Road,111.509,8.4,1986.0,3.0,Comilla,Comilla,Comilla,Comilla,23.2897066386454,91.2929584711155,interpolate
N1,117.627,Box Culvert,LRP118d,BALUZURI 2 CULVERT,2.6,A,101184,Dhaka (Jatrabari)-Comilla (Mainamati)-Chittagong-Teknaf Road,117.627,12.2,1984.0,1.0,Comilla,Comilla,Comilla,Comilla,23.2397920309669,91.3125740860465,interpolate
N1,118.049,Box Culvert,LRP119a,KALIR BAZAR BOX CULVERT,2.5,A,101185,Dhaka (Jatrabari)-Comilla (Mainamati)-Chittagong-Teknaf Road,118.049,12.2,1990.0,1.0,Comilla,Comilla,Comilla,Comilla,23.2360759516523,91.3129901976744,interpolate
N1,119.628,Box Culvert,LRP120b,CHADDAGRAM BAZAR BOX CULVERT,6.0,A,101192,Dhaka (Jatrabari)-Comilla (Mainamati)-Chittagong-Teknaf Road,119.628,9.5,1984.0,1.0,Comilla,Comilla,Comilla,Comilla,23.2220338977777,91.3137005933333,interpolate
N1,121.567,Box Culvert,LRP122a,FALGUNCORA CULVERT,6.1,A,101198,Dhaka (Jatrabari)-Comilla (Mainamati)-Chittagong-Teknaf Road,121.567,11.85,1984.0,1.0,Comilla,Comilla,Comilla,Comilla,23.2050386287937,91.3163167282749,interpolate
N1,122.603,Box Culvert,LRP123a,ATTOCK GRAM BOX CULVERT,6.1,A,101201,Dhaka (Jatrabari)-Comilla (Mainamati)-Chittagong-Teknaf Road,122.603,12.0,1984.0,1.0,Comilla,Comilla,Comilla,Comilla,23.1961887953757,91.3176705069364,interpolate
N1,126.448,Box Culvert,LRP127a,ANDAJER BAZER BOX CULVERT,9.5,A,101214,Dhaka (Jatrabari)-Comilla (Mainamati)-Chittagong-Teknaf Road,126.448,10.5,1992.0,2.0,Comilla,Comilla,Comilla,Comilla,23.1635138669191,91.3215889464646,interpolate
N1,130.912,Box Culvert,LRP131b,HASO BOTHACH BOX CULVERT,6.5,A,101229,Dhaka (Jatrabari)-Comilla (Mainamati)-Chittagong-Teknaf Road,130.912,12.2,1984.0,1.0,Comilla,Comilla,Comilla,Comilla,23.1252363577777,91.3303863688888,interpolate
N1,133.155,Box Culvert,LRP134a,Chanara Box Culvert,6.1,A,101167,Dhaka (Jatrabari)-Comilla (Mainamati)-Chittagong-Teknaf Road,133.155,9.5,1984.0,1.0,Comilla,Comilla,Comilla,Comilla,23.1074284451388,91.3400495436111,interpolate
N1,134.974,Box Culvert,LRP136a,PODOYA BOX CULVERT,3.1,A,101193,Dhaka (Jatrabari)-Comilla (Mainamati)-Chittagong-Teknaf Road,134.974,12.3,1984.0,1.0,Comilla,Comilla,Comilla,Comilla,23.0930298369186,91.3478308386627,interpolate
N1,136.375,Box Culvert,LRP137a,UTTOR KAIEATI CULVERT,3.5,A,101204,Dhaka (Jatrabari)-Comilla (Mainamati)-Chittagong-Teknaf Road,136.375,12.2,1994.0,1.0,Comilla,Comilla,Comilla,Comilla,23.0819909531309,91.3541811474383,interpolate
N1,141.531,Box Culvert,LRP142a,FATAPUR BOX CULVERT,10.8,A,101226,Dhaka (Jatrabari)-Comilla (Mainamati)-Chittagong-Teknaf Road,141.531,15.9,1999.0,2.0,Comilla,Noakhali,Feni,Feni-1,23.0379728055555,91.3656784724359,interpolate
N1,142.793,Slab Culvert,LRP143a,DEBIPUR SLAB CULVERT,1.6,A,101228,Dhaka (Jatrabari)-Comilla (Mainamati)-Chittagong-Teknaf Road,142.793,12.5,1970.0,1.0,Comilla,Noakhali,Feni,Feni-1,23.0269801170731,91.3655004839721,interpolate
N1,144.939,Box Culvert,LRP145a,CHARIPUR CULVERT.,3.4,A,101232,Dhaka (Jatrabari)-Comilla (Mainamati)-Chittagong-Teknaf Road,144.939,13.8,1981.0,1.0,Comilla,Noakhali,Feni,Feni-1,23.0124048410423,91.3779796149837,interpolate
N1,147.296,Box Culvert,LRP148a,RAMPUR BOX CULVERT,1.5,A,101233,Dhaka (Jatrabari)-Comilla (Mainamati)-Chittagong-Teknaf Road,147.296,12.45,1970.0,1.0,Comilla,Noakhali,Feni,Feni-1,22.999248756,91.3957752,interpolate
N1,148.151,RCC Girder Bridge,LRP149a,RAMPUR BRIDGE,23.4,A,101234,Dhaka (Jatrabari)-Comilla (Mainamati)-Chittagong-Teknaf Road,148.151,12.4,1986.0,3.0,Comilla,Noakhali,Feni,Feni-1,22.9947280792802,91.4022894900763,interpolate
N1,148.174,PC Girder Bridge,LRP149b,Rampur Bridge(R),22.15,A,121134,Dhaka (Jatrabari)-Comilla (Mainamati)-Chittagong-Teknaf Road,148.174,,,,Comilla,Noakhali,Feni,Feni-1,22.9945936133042,91.4024539137404,interpolate
N1,148.495,Box Culvert,LRP149c,.,1.9,A,117864,Dhaka (Jatrabari)-Comilla (Mainamati)-Chittagong-Teknaf Road,148.495,12.4,1999.0,1.0,Comilla,Noakhali,Feni,Feni-1,22.9927169359869,91.4047486961832,interpolate
N1,158.031,Box Culvert,LRP159a,FAZAILPUR BOXCULVERT,1.5,A,101241,Dhaka (Jatrabari)-Comilla (Mainamati)-Chittagong-Teknaf Road,158.031,10.3,1984.0,1.0,Comilla,Noakhali,Feni,Feni-1,22.9486038666666,91.4794993833333,interpolate
N1,165.183,PC Girder Bridge,LRP166a,DumGhat Bridge(L),222.43,A,121146,Dhaka (Jatrabari)-Comilla (Mainamati)-Chittagong-Teknaf Road,165.183,11.12,1974.0,7.0,Comilla,Noakhali,Feni,Feni-1,22.9149647061403,91.5262895350877,interpolate
N1,165.825,Box Culvert,LRP166c,BUMGAT BOXCULVERT,6.1,A,101270,Dhaka (Jatrabari)-Comilla (Mainamati)-Chittagong-Teknaf Road,165.825,12.5,1988.0,2.0,Comilla,Noakhali,Feni,Feni-1,22.9097128884012,91.5289285034482,interpolate
N1,166.479,Slab Culvert,LRP167a,BOROYAR PARA SLUB CULVERT,3.0,A,101278,Dhaka (Jatrabari)-Comilla (Mainamati)-Chittagong-Teknaf Road,166.479,12.4,1999.0,1.0,Comilla,Noakhali,Feni,Feni-1,22.9042462955223,91.5316297776119,interpolate
N1,167.963,Box Culvert,LRP169a,BAROYARHAT BOX CULVERT,3.0,A,101236,Dhaka (Jatrabari)-Comilla (Mainamati)-Chittagong-Teknaf Road,167.963,12.5,1990.0,1.0,Comilla,Noakhali,Feni,Feni-1,22.8916386,91.5354719,interpolate
N1,169.933,Box Culvert,LRP171a,UTTOR SONAPAR BOX CULVERT,4.3,A,101239,Dhaka (Jatrabari)-Comilla (Mainamati)-Chittagong-Teknaf Road,169.933,12.5,1991.0,2.0,Comilla,Noakhali,Feni,Feni-1,22.8746986941176,91.5408836647058,interpolate
N1,170.174,Box Culvert,LRP171b,CHAIRMEN BARI BOX CULVERT,2.0,A,101240,Dhaka (Jatrabari)-Comilla (Mainamati)-Chittagong-Teknaf Road,170.174,10.3,1985.0,1.0,Chittagong,Chittagong,Chittagong,Sitakunda,22.872722034892,91.5415958766187,interpolate
N1,170.725,Box Culvert,LRP171c,MADDAM SONAPAR(1) BOX CULVERT,1.5,A,101242,Dhaka (Jatrabari)-Comilla (Mainamati)-Chittagong-Teknaf Road,170.725,12.5,1988.0,1.0,Chittagong,Chittagong,Chittagong,Sitakunda,22.8680563702127,91.5432963340425,interpolate
N1,171.554,Box Culvert,LRP172a,DHARBAR TILA CULVERT,4.3,A,101245,Dhaka (Jatrabari)-Comilla (Mainamati)-Chittagong-Teknaf Road,171.554,12.55,1996.0,2.0,Chittagong,Chittagong,Chittagong,Sitakunda,22.8609876872509,91.5451551717131,interpolate
N1,171.728,Box Culvert,LRP172b,MADDUM SONAPHAR-3,2.0,A,101247,Dhaka (Jatrabari)-Comilla (Mainamati)-Chittagong-Teknaf Road,171.728,12.5,1985.0,1.0,Chittagong,Chittagong,Chittagong,Sitakunda,22.8594847882591,91.5454799987854,interpolate
N1,172.122,Box Culvert,LRP173a,MAMAFOUN ASTANA CULVERT,1.5,A,101243,Dhaka (Jatrabari)-Comilla (Mainamati)-Chittagong-Teknaf Road,172.122,12.5,1988.0,1.0,Chittagong,Chittagong,Chittagong,Sitakunda,22.8560565672727,91.5457188709091,interpolate
N1,172.23,Slab Culvert,LRP173b,MAMAFAKIR ASTANA SLAB CULVERT,1.5,A,101244,Dhaka (Jatrabari)-Comilla (Mainamati)-Chittagong-Teknaf Road,172.23,12.5,1993.0,1.0,Chittagong,Chittagong,Chittagong,Sitakunda,22.8551475327433,91.5458221849557,interpolate
N1,172.969,Box Culvert,LRP174a,MASTANNAGOR BONCUL(1),8.5,A,101249,Dhaka (Jatrabari)-Comilla (Mainamati)-Chittagong-Teknaf Road,172.969,12.4,1996.0,2.0,Chittagong,Chittagong,Chittagong,Sitakunda,22.8486172764705,91.5463706117647,interpolate
N1,173.35,Box Culvert,LRP174b,MUSTAU NOGAR(2),3.0,A,101251,Dhaka (Jatrabari)-Comilla (Mainamati)-Chittagong-Teknaf Road,173.35,12.5,1993.0,1.0,Chittagong,Chittagong,Chittagong,Sitakunda,22.8453914894736,91.5474689210526,interpolate
N1,173.585,Box Culvert,LRP174c,MASTARI HAGOR 3 CULVERT,1.5,A,100547,Dhaka (Jatrabari)-Comilla (Mainamati)-Chittagong-Teknaf Road,173.585,12.5,1992.0,1.0,Chittagong,Chittagong,Chittagong,Sitakunda,22.8434551375,91.54814955625,interpolate
N1,173.859,Box Culvert,LRP175a,MUSTAN NAGAR -4,3.0,A,100552,Dhaka (Jatrabari)-Comilla (Mainamati)-Chittagong-Teknaf Road,173.859,12.5,1992.0,1.0,Chittagong,Chittagong,Chittagong,Sitakunda,22.8410943334277,91.5488096951841,interpolate
N1,174.804,Box Culvert,LRP175b,RAIPUR BOX CUL-1,3.0,A,100550,Dhaka (Jatrabari)-Comilla (Mainamati)-Chittagong-Teknaf Road,174.804,12.2,1993.0,1.0,Chittagong,Chittagong,Chittagong,Sitakunda,22.8327467692419,91.5501035014577,interpolate
N1,175.013,Box Culvert,LRP176a,RAIPUR (2) BOX CULVERT,4.5,A,112534,Dhaka (Jatrabari)-Comilla (Mainamati)-Chittagong-Teknaf Road,175.013,12.2,1988.0,1.0,Chittagong,Chittagong,Chittagong,Sitakunda,22.8309613422018,91.5505028545871,interpolate
N1,179.363,Box Culvert,LRP181a,MIRSARAI BOX CUL,4.5,A,100557,Dhaka (Jatrabari)-Comilla (Mainamati)-Chittagong-Teknaf Road,179.363,12.2,1988.0,1.0,Chittagong,Chittagong,Chittagong,Sitakunda,22.7941813523326,91.5629612622718,interpolate
N1,181.825,Box Culvert,LRP183b,Mirsorai(2) box culvert,6.0,A,100576,Dhaka (Jatrabari)-Comilla (Mainamati)-Chittagong-Teknaf Road,181.825,12.1,1985.0,1.0,Chittagong,Chittagong,Chittagong,Sitakunda,22.774197092,91.5728737519999,interpolate
N1,182.318,Box Culvert,LRP184a,IANAINIPOL BOX CULVERT.,9.7,A,100560,Dhaka (Jatrabari)-Comilla (Mainamati)-Chittagong-Teknaf Road,182.318,11.0,1989.0,2.0,Chittagong,Chittagong,Chittagong,Sitakunda,22.770251666098,91.5750905211087,interpolate
N1,183.296,Box Culvert,LRP185a,BOKIMTOLA BOX CULVERT,4.0,A,100575,Dhaka (Jatrabari)-Comilla (Mainamati)-Chittagong-Teknaf Road,183.296,12.8,1992.0,1.0,Chittagong,Chittagong,Chittagong,Sitakunda,22.7630626913907,91.5804538821192,interpolate
N1,184.654,Box Culvert,LRP186a,VARTAKA BOX CULVERT,12.9,A,100545,Dhaka (Jatrabari)-Comilla (Mainamati)-Chittagong-Teknaf Road,184.654,12.7,1999.0,2.0,Chittagong,Chittagong,Chittagong,Sitakunda,22.7535653245121,91.5886004236585,interpolate
N1,185.058,Box Culvert,LRP187a,VARTAGIA BOX CULVERT,3.0,A,100546,Dhaka (Jatrabari)-Comilla (Mainamati)-Chittagong-Teknaf Road,185.058,12.45,1992.0,1.0,Chittagong,Chittagong,Chittagong,Sitakunda,22.7506393495689,91.5908840370689,interpolate
N1,188.35,Box Culvert,LRP190a,NIAZAMPUR BOX CULVERT,3.0,A,100549,Dhaka (Jatrabari)-Comilla (Mainamati)-Chittagong-Teknaf Road,188.35,12.2,1988.0,1.0,Chittagong,Chittagong,Chittagong,Sitakunda,22.723316755473,91.6024331404452,interpolate
N1,189.058,Box Culvert,LRP191a,MIRJAPUR BOX CULVERT,3.0,A,100551,Dhaka (Jatrabari)-Comilla (Mainamati)-Chittagong-Teknaf Road,189.058,12.2,1985.0,1.0,Chittagong,Chittagong,Chittagong,Sitakunda,22.7178243865384,91.6057623307692,interpolate
N1,189.13,Box Culvert,LRP191b,MIRZAPUR (2) BOX CULVERT,3.0,A,100574,Dhaka (Jatrabari)-Comilla (Mainamati)-Chittagong-Teknaf Road,189.13,12.2,1993.0,1.0,Chittagong,Chittagong,Chittagong,Sitakunda,22.7172707342307,91.6061084846153,interpolate
N1,191.107,Box Culvert,LRP193a,DUKHIN UTHPAR BOX CULVERT,19.2,A,100556,Dhaka (Jatrabari)-Comilla (Mainamati)-Chittagong-Teknaf Road,191.107,12.2,1986.0,4.0,Chittagong,Chittagong,Chittagong,Sitakunda,22.701816503937,91.6149734608923,interpolate
N1,192.408,Box Culvert,LRP194a,VANGGARPOL BOX CULVERT,4.2,A,100558,Dhaka (Jatrabari)-Comilla (Mainamati)-Chittagong-Teknaf Road,192.408,12.2,1993.0,1.0,Chittagong,Chittagong,Chittagong,Sitakunda,22.6912517148148,91.6201690574074,interpolate
N1,192.95,Box Culvert,LRP195a,BORO KAMALDA BOX CULVERT,3.2,A,100561,Dhaka (Jatrabari)-Comilla (Mainamati)-Chittagong-Teknaf Road,192.95,12.2,1984.0,1.0,Chittagong,Chittagong,Chittagong,Sitakunda,22.6868697647058,91.6220385823529,interpolate
N1,194.149,Box Culvert,LRP196a,TARAT BOX CULVERT,6.0,A,100562,Dhaka (Jatrabari)-Comilla (Mainamati)-Chittagong-Teknaf Road,194.149,12.1,1990.0,1.0,Chittagong,Chittagong,Chittagong,Sitakunda,22.6769772991044,91.6268169453731,interpolate
N1,194.998,Box Culvert,LRP197a,Tarial Bazar Culvert,3.0,A,100563,Dhaka (Jatrabari)-Comilla (Mainamati)-Chittagong-Teknaf Road,194.998,12.2,1990.0,1.0,Chittagong,Chittagong,Chittagong,Sitakunda,22.6699594391304,91.6293531695652,interpolate
N1,195.501,Box Culvert,LRP197b,MIRJA PUR (3) BOX CULVERT,3.0,A,100564,Dhaka (Jatrabari)-Comilla (Mainamati)-Chittagong-Teknaf Road,195.501,12.1,1984.0,1.0,Chittagong,Chittagong,Chittagong,Sitakunda,22.6657838981081,91.6311293581081,interpolate
N1,196.038,Box Culvert,LRP198a,SATU DURUAR HAT BOX CULVERT,3.0,A,100565,Dhaka (Jatrabari)-Comilla (Mainamati)-Chittagong-Teknaf Road,196.038,12.2,1986.0,1.0,Chittagong,Chittagong,Chittagong,Sitakunda,22.6615956814814,91.6335257425926,interpolate
N1,196.925,Box Culvert,LRP199a,RONA SORA CULVERT,3.1,A,100566,Dhaka (Jatrabari)-Comilla (Mainamati)-Chittagong-Teknaf Road,196.925,12.2,1984.0,1.0,Chittagong,Chittagong,Chittagong,Sitakunda,22.6547124294117,91.6379261764705,interpolate
N1,197.39,Box Culvert,LRP199b,NUNA CHARA BOX CULVERT,4.6,A,100567,Dhaka (Jatrabari)-Comilla (Mainamati)-Chittagong-Teknaf Road,197.39,12.1,1989.0,1.0,Chittagong,Chittagong,Chittagong,Sitakunda,22.6510709547445,91.6400341194647,interpolate
N1,197.846,Box Culvert,LRP199c,BOTTOL BOX CULVERT,12.4,A,100569,Dhaka (Jatrabari)-Comilla (Mainamati)-Chittagong-Teknaf Road,197.846,12.1,1992.0,2.0,Chittagong,Chittagong,Chittagong,Sitakunda,22.6474561112311,91.6419171170626,interpolate
N1,199.279,Box Culvert,LRP201a,KACHAI PATH BOX CULVERT,3.0,A,100568,Dhaka (Jatrabari)-Comilla (Mainamati)-Chittagong-Teknaf Road,199.279,12.1,2003.0,1.0,Chittagong,Chittagong,Chittagong,Sitakunda,22.636096590965,91.648209240657,interpolate
N1,199.502,Box Culvert,LRP201b,KACHAI POTTI BOX CULVERT,3.0,A,100570,Dhaka (Jatrabari)-Comilla (Mainamati)-Chittagong-Teknaf Road,199.502,12.1,1999.0,1.0,Chittagong,Chittagong,Chittagong,Sitakunda,22.6343285718685,91.6492077265913,interpolate
N1,200.277,Box Culvert,LRP202a,EGOL PUR BOX CULVERT,3.0,A,100572,Dhaka (Jatrabari)-Comilla (Mainamati)-Chittagong-Teknaf Road,200.277,12.13,1985.0,1.0,Chittagong,Chittagong,Chittagong,Sitakunda,22.6281666352941,91.6527578258312,interpolate
N1,200.918,Slab Culvert,LRP203a,SITAKUNDA SLAB,3.0,A,100573,Dhaka (Jatrabari)-Comilla (Mainamati)-Chittagong-Teknaf Road,200.918,12.2,1983.0,1.0,Chittagong,Chittagong,Chittagong,Sitakunda,22.6230461711711,91.6554672531531,interpolate
N1,201.52,Box Culvert,LRP203b,MOHADAB PUR BOX CULVERT,3.0,A,100577,Dhaka (Jatrabari)-Comilla (Mainamati)-Chittagong-Teknaf Road,201.52,12.1,1989.0,1.0,Chittagong,Chittagong,Chittagong,Sitakunda,22.6177563490118,91.6580589438735,interpolate
N1,201.999,Slab Culvert,LRP204a,PURBOMOHADAB PUR SLAB CULVERT(L),4.6,A,100609,Dhaka (Jatrabari)-Comilla (Mainamati)-Chittagong-Teknaf Road,201.999,12.2,1980.0,1.0,Chittagong,Chittagong,Chittagong,Sitakunda,22.6149899686274,91.6602670503268,interpolate
N1,201.999,Box Culvert,LRP204a,DULAHAJRA(R),4.6,A,112535,Dhaka (Jatrabari)-Comilla (Mainamati)-Chittagong-Teknaf Road,201.999,12.2,1992.0,1.0,Chittagong,Chittagong,Chittagong,Sitakunda,22.6149899686274,91.6602670503268,interpolate
N1,202.435,Box Culvert,LRP205a,MADICAL MORE CULVERT,3.0,A,100579,Dhaka (Jatrabari)-Comilla (Mainamati)-Chittagong-Teknaf Road,202.435,12.2,1986.0,1.0,Chittagong,Chittagong,Chittagong,Sitakunda,22.6117556741935,91.6625686731182,interpolate
N1,203.457,Box Culvert,LRP206a,DOKHIN MOHADEB PUR BOX CULVERT,2.95,A,100578,Dhaka (Jatrabari)-Comilla (Mainamati)-Chittagong-Teknaf Road,203.457,12.2,1985.0,1.0,Chittagong,Chittagong,Chittagong,Sitakunda,22.6038394411764,91.6673745588235,interpolate
N1,204.765,Box Culvert,LRP207a,HATILOTA BOX CULVERT,4.5,A,100582,Dhaka (Jatrabari)-Comilla (Mainamati)-Chittagong-Teknaf Road,204.765,12.1,1989.0,1.0,Chittagong,Chittagong,Chittagong,Sitakunda,22.5938881803921,91.6738889367647,interpolate
N1,206.3,Box Culvert,LRP208d,BAROGINDO CULVERT,2.5,A,100585,Dhaka (Jatrabari)-Comilla (Mainamati)-Chittagong-Teknaf Road,206.3,12.2,1989.0,1.0,Chittagong,Chittagong,Chittagong,Sitakunda,22.5815086746355,91.6795390413994,interpolate
N1,206.866,Box Culvert,LRP209a,BARO-CUNDHOW BOX CULVERT,10.2,A,100586,Dhaka (Jatrabari)-Comilla (Mainamati)-Chittagong-Teknaf Road,206.866,12.3,1990.0,2.0,Chittagong,Chittagong,Chittagong,Sitakunda,22.5767930229508,91.68162274153,interpolate
N1,207.64,Box Culvert,LRP210a,PHPMORE BON CULVERT,3.0,A,100588,Dhaka (Jatrabari)-Comilla (Mainamati)-Chittagong-Teknaf Road,207.64,12.2,1988.0,1.0,Chittagong,Chittagong,Chittagong,Sitakunda,22.5702905930578,91.6840096656198,interpolate
N1,207.913,Box Culvert,LRP210b,CHARA KANDI BOX CULVERT,8.2,A,100589,Dhaka (Jatrabari)-Comilla (Mainamati)-Chittagong-Teknaf Road,207.913,12.5,1985.0,2.0,Chittagong,Chittagong,Chittagong,Sitakunda,22.5679968064462,91.6846866604958,interpolate
N1,208.1,Box Culvert,LRP210d,R. R TEXTAIL BOX CULVERT,4.5,A,100590,Dhaka (Jatrabari)-Comilla (Mainamati)-Chittagong-Teknaf Road,208.1,12.2,1987.0,1.0,Chittagong,Chittagong,Chittagong,Sitakunda,22.5664212916363,91.6851826636363,interpolate
N1,209.024,Box Culvert,LRP211a,OHIDPUR BOX CULVERT,4.1,A,112536,Dhaka (Jatrabari)-Comilla (Mainamati)-Chittagong-Teknaf Road,209.024,12.8,1986.0,1.0,Chittagong,Chittagong,Chittagong,Sitakunda,22.5585210862619,91.687506242492,interpolate
N1,210.476,Box Culvert,LRP213a,SOUTH BALSH KHALI BOX CULVERT,3.0,A,100592,Dhaka (Jatrabari)-Comilla (Mainamati)-Chittagong-Teknaf Road,210.476,12.2,1987.0,1.0,Chittagong,Chittagong,Chittagong,Sitakunda,22.5467727210909,91.6926260603636,interpolate
N1,210.776,Box Culvert,LRP213b,DOKHIN BASH-KHALI BOX CULVERT,5.2,A,100594,Dhaka (Jatrabari)-Comilla (Mainamati)-Chittagong-Teknaf Road,210.776,10.3,2000.0,2.0,Chittagong,Chittagong,Chittagong,Sitakunda,22.5444897756363,91.6941310785454,interpolate
N1,211.433,Box Culvert,LRP214a,SOTTANA MONDIR CULVERT,8.2,A,100596,Dhaka (Jatrabari)-Comilla (Mainamati)-Chittagong-Teknaf Road,211.433,12.6,1986.0,2.0,Chittagong,Chittagong,Chittagong,Sitakunda,22.5390300234693,91.6965452744898,interpolate
N1,212.483,Box Culvert,LRP215a,GULAM JUTE MILE BOX CULVERT,3.0,A,100598,Dhaka (Jatrabari)-Comilla (Mainamati)-Chittagong-Teknaf Road,212.483,12.2,2004.0,1.0,Chittagong,Chittagong,Chittagong,Sitakunda,22.5303678038461,91.7004641228571,interpolate
N1,214.807,PC Girder Bridge,LRP217a,Chotokumir Bridge,41.11,A,121350,Dhaka (Jatrabari)-Comilla (Mainamati)-Chittagong-Teknaf Road,214.807,,,,Chittagong,Chittagong,Chittagong,Sitakunda,22.5113471164122,91.7087907889313,interpolate
N1,215.467,Box Culvert,LRP218a,ROYL CIMINT GATE CULVETRT,4.5,A,100601,Dhaka (Jatrabari)-Comilla (Mainamati)-Chittagong-Teknaf Road,215.467,12.1,1989.0,1.0,Chittagong,Chittagong,Chittagong,Sitakunda,22.5060220437735,91.7112848218867,interpolate
N1,216.196,RCC Girder Bridge,LRP218b,GORA MARA RCC GIRDER BRIDGE,17.6,A,100605,Dhaka (Jatrabari)-Comilla (Mainamati)-Chittagong-Teknaf Road,216.196,9.7,1989.0,1.0,Chittagong,Chittagong,Chittagong,Sitakunda,22.5000858335766,91.7141504905109,interpolate
N1,217.942,Box Culvert,LRP220a,BARAOWLLA BOX CULVERT,4.5,A,100607,Dhaka (Jatrabari)-Comilla (Mainamati)-Chittagong-Teknaf Road,217.942,12.2,1989.0,1.0,Chittagong,Chittagong,Chittagong,Sitakunda,22.4855480068965,91.7195309517241,interpolate
N1,219.427,Box Culvert,LRP221a,HATIBORI BOX CULVERT,6.0,A,100610,Dhaka (Jatrabari)-Comilla (Mainamati)-Chittagong-Teknaf Road,219.427,12.1,1988.0,1.0,Chittagong,Chittagong,Chittagong,Sitakunda,22.4728530893544,91.7232633541336,interpolate
N1,222.357,Box Culvert,LRP224a,KODOM RASUL BOX CULVERT,3.0,A,100612,Dhaka (Jatrabari)-Comilla (Mainamati)-Chittagong-Teknaf Road,222.357,12.1,1985.0,1.0,Chittagong,Chittagong,Chittagong,Sitakunda,22.4488628503871,91.7342823894358,interpolate
N1,223.743,Box Culvert,LRP226a,HASNA BAD BOX CULVERT,3.0,A,100614,Dhaka (Jatrabari)-Comilla (Mainamati)-Chittagong-Teknaf Road,223.743,12.2,1989.0,1.0,Chittagong,Chittagong,Chittagong,Sitakunda,22.4375035216216,91.7386659473513,interpolate
N1,224.053,RCC Girder Bridge,LRP226b,VATERIE BRIDGE,40.0,A,100615,Dhaka (Jatrabari)-Comilla (Mainamati)-Chittagong-Teknaf Road,224.053,18.0,1995.0,3.0,Chittagong,Chittagong,Chittagong,Sitakunda,22.4350737918918,91.7396527192432,interpolate
N1,228.029,Box Culvert,LRP230a,VATIARI CULVERT,5.0,A,100617,Dhaka (Jatrabari)-Comilla (Mainamati)-Chittagong-Teknaf Road,228.029,10.9,1996.0,1.0,Chittagong,Chittagong,Chittagong,Sitakunda,22.4030145445,91.75657411625,interpolate
N1,228.797,Box Culvert,LRP231a,T. B HOSPITAL GATE BOX CULVERT,3.0,A,100619,Dhaka (Jatrabari)-Comilla (Mainamati)-Chittagong-Teknaf Road,228.797,12.1,1984.0,1.0,Chittagong,Chittagong,Chittagong,Sitakunda,22.3963398830265,91.7582551580777,interpolate
N1,229.203,PC Girder Bridge,LRP231b,GAMMON BRIDGE,18.0,A,100618,Dhaka (Jatrabari)-Comilla (Mainamati)-Chittagong-Teknaf Road,229.203,20.2,1955.0,1.0,Chittagong,Chittagong,Chittagong,Sitakunda,22.3927175345622,91.7590882138248,interpolate
N1,230.13,Box Culvert,LRP232a,PAKKA MATA BOX CULVERT,3.0,A,112543,Dhaka (Jatrabari)-Comilla (Mainamati)-Chittagong-Teknaf Road,230.13,12.2,1951.0,1.0,Chittagong,Chittagong,Chittagong,Sitakunda,22.38524588272,91.76250565776,interpolate
N1,230.921,Box Culvert,LRP233a,GLAXO BOX CULVERT,8.3,A,100620,Dhaka (Jatrabari)-Comilla (Mainamati)-Chittagong-Teknaf Road,230.921,12.8,1990.0,2.0,Chittagong,Chittagong,Chittagong,Sitakunda,22.3797011826666,91.7670476533333,interpolate
N1,231.966,Box Culvert,LRP234a,CORNAIL HAT BOX CULVERT,3.0,A,100621,Dhaka (Jatrabari)-Comilla (Mainamati)-Chittagong-Teknaf Road,231.966,31.0,1993.0,1.0,Chittagong,Chittagong,Chittagong,Sitakunda,22.3696841276595,91.7739258709219,interpolate
N1,242.898,RCC Girder Bridge,LRP238a,Bakulia Bridge,15.8,A,121356,Dhaka (Jatrabari)-Comilla (Mainamati)-Chittagong-Teknaf Road,242.898,,,,Chittagong,Chittagong,Chittagong,Chittagong,22.3522674714754,91.852622049836,interpolate
N1,244.975,RCC Girder Bridge,LRP240c,RAJAKHALI RCC GIDER BRIDGE,48.5,A,100632,Dhaka (Jatrabari)-Comilla (Mainamati)-Chittagong-Teknaf Road,244.975,9.2,1985.0,3.0,Chittagong,Chittagong,Chittagong,Chittagong,22.3349153368556,91.8533979043814,interpolate
N1,246.02,PC Box,LRP241a,Sha Amanot Bridge,954.5,A,121361,Dhaka (Jatrabari)-Comilla (Mainamati)-Chittagong-Teknaf Road,246.02,,,,Chittagong,Chittagong,Chittagong,Chittagong,22.3266451369152,91.852759390139,interpolate
N1,247.637,PC Girder Bridge,LRP242b,Shikalbaha Bridge,17.3,A,121083,Dhaka (Jatrabari)-Comilla (Mainamati)-Chittagong-Teknaf Road,247.637,,,,Chittagong,Chittagong,Dohazari,Patiya,22.3129265129032,91.856181916129,interpolate
N1,249.04,Box Culvert,LRP244a,SOUTH MITTACHORI,3.0,A,112537,Dhaka (Jatrabari)-Comilla (Mainamati)-Chittagong-Teknaf Road,249.04,12.2,1968.0,1.0,Chittagong,Chittagong,Dohazari,Patiya,22.3026235524271,91.8635646970873,interpolate
N1,249.674,Box Culvert,LRP244c,KADUMTOLI CULVERT,3.0,A,112542,Dhaka (Jatrabari)-Comilla (Mainamati)-Chittagong-Teknaf Road,249.674,12.2,1972.0,1.0,Chittagong,Chittagong,Dohazari,Patiya,22.2975350260563,91.866363031514,interpolate
N1,250.215,Slab Culvert,LRP245a,ISLAMPUR CULVERT,1.5,A,112541,Dhaka (Jatrabari)-Comilla (Mainamati)-Chittagong-Teknaf Road,250.215,12.1,1993.0,1.0,Chittagong,Chittagong,Dohazari,Patiya,22.2932366309133,91.8684360651053,interpolate
N1,250.519,Box Culvert,LRP245b,NOLBILA CULVERT,3.0,A,112538,Dhaka (Jatrabari)-Comilla (Mainamati)-Chittagong-Teknaf Road,250.519,12.2,1992.0,1.0,Chittagong,Chittagong,Dohazari,Patiya,22.2916421411764,91.8702911411764,interpolate
N1,250.841,Box Culvert,LRP246a,SHIKALBAHA MORE,3.0,A,100638,Dhaka (Jatrabari)-Comilla (Mainamati)-Chittagong-Teknaf Road,250.841,13.4,1985.0,1.0,Chittagong,Chittagong,Dohazari,Patiya,22.2926079302013,91.8730201176733,interpolate
N1,251.281,Box Culvert,LRP246b,SHIKALBAHA BOX CULVERT,3.0,A,100639,Dhaka (Jatrabari)-Comilla (Mainamati)-Chittagong-Teknaf Road,251.281,13.4,1995.0,1.0,Chittagong,Chittagong,Dohazari,Patiya,22.2944653526717,91.876717971374,interpolate
N1,251.538,PC Girder Bridge,LRP247a,Sikolbaha Bridge-1,116.13,A,121085,Dhaka (Jatrabari)-Comilla (Mainamati)-Chittagong-Teknaf Road,251.538,,,,Chittagong,Chittagong,Dohazari,Patiya,22.2962698699619,91.8807528022813,interpolate
N1,254.333,Box Culvert,LRP250a,KUSUMPUR BOX CULVERT,3.0,A,100643,Dhaka (Jatrabari)-Comilla (Mainamati)-Chittagong-Teknaf Road,254.333,12.15,1987.0,1.0,Chittagong,Chittagong,Dohazari,Patiya,22.3035365502293,91.9044227217889,interpolate
N1,255.505,Box Culvert,LRP251a,tassi bazer(R),3.0,A,112540,Dhaka (Jatrabari)-Comilla (Mainamati)-Chittagong-Teknaf Road,255.505,10.2,2000.0,1.0,Chittagong,Chittagong,Dohazari,Patiya,22.3083189877358,91.9142153009434,interpolate
N1,256.378,Box Culvert,LRP252a,MONSHA CULVERT,3.0,A,100647,Dhaka (Jatrabari)-Comilla (Mainamati)-Chittagong-Teknaf Road,256.378,12.2,1983.0,1.0,Chittagong,Chittagong,Dohazari,Patiya,22.3137546831094,91.9203176378118,interpolate
N1,256.89,Box Culvert,LRP252c,UTTOR SONAPUR,3.0,A,112539,Dhaka (Jatrabari)-Comilla (Mainamati)-Chittagong-Teknaf Road,256.89,10.3,1999.0,1.0,Chittagong,Chittagong,Dohazari,Patiya,22.3157468089473,91.9243524131578,interpolate
N1,257.94,Steel Beam & RCC Slab,LRP253a,Pirol,5.3,A,100728,Dhaka (Jatrabari)-Comilla (Mainamati)-Chittagong-Teknaf Road,257.94,7.0,1966.0,1.0,Chittagong,Chittagong,Dohazari,Patiya,22.3137565607999,91.9339832312,interpolate
N1,259.795,Box Culvert,LRP255a,UZIRPUR HIGH SCHOOL,3.0,A,100685,Dhaka (Jatrabari)-Comilla (Mainamati)-Chittagong-Teknaf Road,259.795,10.3,1974.0,1.0,Chittagong,Chittagong,Dohazari,Patiya,22.3084394099236,91.9483886979643,interpolate
N1,264.369,Box Culvert,LRP260a,PALYA BUS STATION,12.4,A,100666,Dhaka (Jatrabari)-Comilla (Mainamati)-Chittagong-Teknaf Road,264.369,12.7,1978.0,3.0,Chittagong,Chittagong,Dohazari,Patiya,22.2911451997412,91.9833668252263,interpolate
N1,267.818,Box Culvert,LRP263b,KHORNA CULVERT,3.0,A,100650,Dhaka (Jatrabari)-Comilla (Mainamati)-Chittagong-Teknaf Road,267.818,12.2,1985.0,1.0,Chittagong,Chittagong,Dohazari,Patiya,22.2710895749999,92.00559725,interpolate
N1,269.721,Box Culvert,LRP265a,MOJAFFARABAD,9.2,A,100672,Dhaka (Jatrabari)-Comilla (Mainamati)-Chittagong-Teknaf Road,269.721,12.2,1992.0,2.0,Chittagong,Chittagong,Dohazari,Patiya,22.2549374824626,92.0103021287313,interpolate
N1,269.99,Box Culvert,LRP265b,MOJAFFORABAD BOX CULVERT,6.0,A,100653,Dhaka (Jatrabari)-Comilla (Mainamati)-Chittagong-Teknaf Road,269.99,12.2,1978.0,1.0,Chittagong,Chittagong,Dohazari,Patiya,22.2531199613981,92.0119718729483,interpolate
N1,270.642,Box Culvert,LRP267a,MOJAFFORABAD,9.4,A,100652,Dhaka (Jatrabari)-Comilla (Mainamati)-Chittagong-Teknaf Road,270.642,12.2,1986.0,3.0,Chittagong,Chittagong,Dohazari,Patiya,22.2487130149162,92.0158341025875,interpolate
N1,271.89,Box Culvert,LRP268a,ROWSONAT CUL,14.0,A,100674,Dhaka (Jatrabari)-Comilla (Mainamati)-Chittagong-Teknaf Road,271.89,12.6,1991.0,3.0,Chittagong,Chittagong,Dohazari,Patiya,22.24038615762,92.0217918336116,interpolate
N1,272.356,Box Culvert,LRP268b,KANCHANAGAR CUL,14.0,A,100676,Dhaka (Jatrabari)-Comilla (Mainamati)-Chittagong-Teknaf Road,272.356,10.3,1978.0,3.0,Chittagong,Chittagong,Dohazari,Patiya,22.2366345532374,92.0232647489208,interpolate
N1,273.878,Box Culvert,LRP270a,GASBAREA BOX CULVERT,14.0,A,100654,Dhaka (Jatrabari)-Comilla (Mainamati)-Chittagong-Teknaf Road,273.878,12.1,1991.0,3.0,Chittagong,Chittagong,Dohazari,Patiya,22.2222719897959,92.0273785979591,interpolate
N1,274.66,Box Culvert,LRP271a,GASBAREA COLLEGE BOX CULVERT,9.2,A,100655,Dhaka (Jatrabari)-Comilla (Mainamati)-Chittagong-Teknaf Road,274.66,9.7,1985.0,2.0,Chittagong,Chittagong,Dohazari,Patiya,22.2155873504854,92.0290230394174,interpolate
N1,284.134,Box Culvert,LRP280a,KATGOR CULVERT,9.2,A,100696,Dhaka (Jatrabari)-Comilla (Mainamati)-Chittagong-Teknaf Road,284.134,11.6,1993.0,2.0,Chittagong,Chittagong,Dohazari,Dohazari,22.1498523145631,92.0696330718446,interpolate
N1,285.58,Box Culvert,LRP282a,MOULOVER DOKAN,12.4,A,100725,Dhaka (Jatrabari)-Comilla (Mainamati)-Chittagong-Teknaf Road,285.58,11.6,1994.0,3.0,Chittagong,Chittagong,Dohazari,Dohazari,22.1369522329341,92.0699301281437,interpolate
N1,286.08,Box Culvert,LRP282c,PATATR PULL CULVERT,15.4,A,100700,Dhaka (Jatrabari)-Comilla (Mainamati)-Chittagong-Teknaf Road,286.08,11.6,1994.0,3.0,Chittagong,Chittagong,Dohazari,Dohazari,22.1325208428571,92.0701565366459,interpolate
N1,286.378,PC Girder Bridge,LRP282e,Pathanerpul Bridge,33.65,A,121104,Dhaka (Jatrabari)-Comilla (Mainamati)-Chittagong-Teknaf Road,286.378,,,,Chittagong,Chittagong,Dohazari,Dohazari,22.1299160285714,92.0706024714285,interpolate
N1,286.378,PC Girder Bridge,LRP282e,PATANER PULL(BRIDGE),34.6,A,100716,Dhaka (Jatrabari)-Comilla (Mainamati)-Chittagong-Teknaf Road,286.378,11.4,1980.0,1.0,Chittagong,Chittagong,Dohazari,Dohazari,22.1299160285714,92.0706024714285,interpolate
N1,286.631,RCC Girder Bridge,LRP283a,Noyakhalar Muk Bridge,27.9,A,121105,Dhaka (Jatrabari)-Comilla (Mainamati)-Chittagong-Teknaf Road,286.631,,,,Chittagong,Chittagong,Dohazari,Dohazari,22.1277338010309,92.0710012276288,interpolate
N1,286.631,RCC Girder Bridge,LRP283a,NOYAKHALAR MUK,28.0,A,100714,Dhaka (Jatrabari)-Comilla (Mainamati)-Chittagong-Teknaf Road,286.631,11.6,1978.0,2.0,Chittagong,Chittagong,Dohazari,Dohazari,22.1277338010309,92.0710012276288,interpolate
N1,287.144,Box Culvert,LRP283c,NOYAKHALARMUK,15.4,A,100721,Dhaka (Jatrabari)-Comilla (Mainamati)-Chittagong-Teknaf Road,287.144,10.3,1994.0,3.0,Chittagong,Chittagong,Dohazari,Dohazari,22.1230775989717,92.071701048329,interpolate
N1,287.487,Box Culvert,LRP283d,NOYA KHALAR MUK (KARANIERHAT) BOX CULVERT,20.4,A,100718,Dhaka (Jatrabari)-Comilla (Mainamati)-Chittagong-Teknaf Road,287.487,12.6,1994.0,4.0,Chittagong,Chittagong,Dohazari,Dohazari,22.1204875006655,92.0719705134775,interpolate
N1,288.329,Box Culvert,LRP284a,KARANERHAT CULVERT,5.0,A,100711,Dhaka (Jatrabari)-Comilla (Mainamati)-Chittagong-Teknaf Road,288.329,12.3,1994.0,1.0,Chittagong,Chittagong,Dohazari,Dohazari,22.1133524851063,92.0726869042553,interpolate
N1,289.889,Box Culvert,LRP286b,KARANERHAT CULVERT,7.2,A,100709,Dhaka (Jatrabari)-Comilla (Mainamati)-Chittagong-Teknaf Road,289.889,12.2,1994.0,2.0,Chittagong,Chittagong,Dohazari,Dohazari,22.09827857,92.074800422,interpolate
N1,290.719,Box Culvert,LRP287a,KOACHIA(MADARBHI),11.2,A,100707,Dhaka (Jatrabari)-Comilla (Mainamati)-Chittagong-Teknaf Road,290.719,11.6,1994.0,3.0,Chittagong,Chittagong,Dohazari,Dohazari,22.0935775004504,92.0805047995495,interpolate
N1,292.426,Box Culvert,LRP288a,MITADIGI ACADEMY,2.0,A,100706,Dhaka (Jatrabari)-Comilla (Mainamati)-Chittagong-Teknaf Road,292.426,12.2,1994.0,1.0,Chittagong,Chittagong,Dohazari,Dohazari,22.0840668315789,92.093196937799,interpolate
N1,293.134,Box Culvert,LRP289a,MITADIGI,12.6,A,100703,Dhaka (Jatrabari)-Comilla (Mainamati)-Chittagong-Teknaf Road,293.134,11.6,1993.0,4.0,Chittagong,Chittagong,Dohazari,Dohazari,22.080520608,92.0984855314285,interpolate
N1,294.534,PC Girder Bridge,LRP291a,RAJGHATA BRIDGE,30.3,A,100701,Dhaka (Jatrabari)-Comilla (Mainamati)-Chittagong-Teknaf Road,294.534,11.6,1992.0,2.0,Chittagong,Chittagong,Dohazari,Dohazari,22.0695600813559,92.1042754237288,interpolate
N1,294.77,Box Culvert,LRP291c,THAKUR DIGI BOX CULVERT,2.0,A,100702,Dhaka (Jatrabari)-Comilla (Mainamati)-Chittagong-Teknaf Road,294.77,12.2,1994.0,1.0,Chittagong,Chittagong,Dohazari,Dohazari,22.0679099558303,92.1055530035335,interpolate
N1,295.295,RCC Girder Bridge,LRP291d,Khoria Nagar Bridge,38.5,A,121109,Dhaka (Jatrabari)-Comilla (Mainamati)-Chittagong-Teknaf Road,295.295,,,,Chittagong,Chittagong,Dohazari,Dohazari,22.0637567157894,92.1071061094736,interpolate
N1,295.295,PC Girder Bridge,LRP291d,KHORIANAGAR BRIDGE,38.8,A,100704,Dhaka (Jatrabari)-Comilla (Mainamati)-Chittagong-Teknaf Road,295.295,11.6,1993.0,2.0,Chittagong,Chittagong,Dohazari,Dohazari,22.0637567157894,92.1071061094736,interpolate
N1,295.625,Box Culvert,LRP292a,NOYA PARA BOX CULVERT,2.5,A,100705,Dhaka (Jatrabari)-Comilla (Mainamati)-Chittagong-Teknaf Road,295.625,12.2,1991.0,1.0,Chittagong,Chittagong,Dohazari,Dohazari,22.06088615,92.10773337,interpolate
N1,296.135,Box Culvert,LRP292b,PODUA NOYA PARA BOX CULVERT,8.2,A,100717,Dhaka (Jatrabari)-Comilla (Mainamati)-Chittagong-Teknaf Road,296.135,12.2,1992.0,2.0,Chittagong,Chittagong,Dohazari,Dohazari,22.0565051155339,92.1090854592233,interpolate
N1,296.647,Box Culvert,LRP293a,PODUA BAZAR BOX CULVERT,12.6,A,100708,Dhaka (Jatrabari)-Comilla (Mainamati)-Chittagong-Teknaf Road,296.647,11.6,1992.0,3.0,Chittagong,Chittagong,Dohazari,Dohazari,22.0519296419354,92.1090613887096,interpolate
N1,297.034,Box Culvert,LRP293c,PODUA BAZAR BOX CULVERT,6.0,A,100710,Dhaka (Jatrabari)-Comilla (Mainamati)-Chittagong-Teknaf Road,297.034,12.2,1992.0,2.0,Chittagong,Chittagong,Dohazari,Dohazari,22.0483713234624,92.1081938519362,interpolate
N1,297.569,Box Culvert,LRP294a,BARO AWLIA(R),13.64,A,100724,Dhaka (Jatrabari)-Comilla (Mainamati)-Chittagong-Teknaf Road,297.569,11.6,1992.0,3.0,Chittagong,Chittagong,Dohazari,Dohazari,22.0440962566176,92.1070629529411,interpolate
N1,298.405,Box Culvert,LRP294c,TALOCKDNR PARA BOX CULVERT,2.5,A,100658,Dhaka (Jatrabari)-Comilla (Mainamati)-Chittagong-Teknaf Road,298.405,12.2,1991.0,1.0,Chittagong,Chittagong,Dohazari,Dohazari,22.0375898525773,92.1039891092783,interpolate
N1,298.405,Box Culvert,LRP294c,TALOCKDAR PARA,2.5,A,114227,Dhaka (Jatrabari)-Comilla (Mainamati)-Chittagong-Teknaf Road,298.405,12.2,1991.0,1.0,Chittagong,Chittagong,Dohazari,Dohazari,22.0375898525773,92.1039891092783,interpolate
N1,299.057,Box Culvert,LRP295a,AMIRABAD BOX CULVERT,2.5,A,100659,Dhaka (Jatrabari)-Comilla (Mainamati)-Chittagong-Teknaf Road,299.057,12.2,1991.0,1.0,Chittagong,Chittagong,Dohazari,Dohazari,22.031864884656,92.1041246666666,interpolate
N1,299.434,PC Girder Bridge,LRP295b,Amirabad Bridge,68.8,A,121123,Dhaka (Jatrabari)-Comilla (Mainamati)-Chittagong-Teknaf Road,299.434,,,,Chittagong,Chittagong,Dohazari,Dohazari,22.0287013636363,92.1034293272727,interpolate
N1,299.434,PC Girder Bridge,LRP295b,AMIRABAD PC GIDER BRIDGE,68.8,A,100661,Dhaka (Jatrabari)-Comilla (Mainamati)-Chittagong-Teknaf Road,299.434,11.6,1992.0,2.0,Chittagong,Chittagong,Dohazari,Dohazari,22.0287013636363,92.1034293272727,interpolate
N1,299.756,Box Culvert,LRP296a,AMIRABAD LOHAGOR BOX CULVERT,2.0,A,100662,Dhaka (Jatrabari)-Comilla (Mainamati)-Chittagong-Teknaf Road,299.756,12.2,1994.0,1.0,Chittagong,Chittagong,Dohazari,Dohazari,22.0260045474972,92.1026967443826,interpolate
N1,300.406,Box Culvert,LRP296b,AMIRABAD LOHAGORA BOX CULVERT,10.0,A,100664,Dhaka (Jatrabari)-Comilla (Mainamati)-Chittagong-Teknaf Road,300.406,11.8,1994.0,2.0,Chittagong,Chittagong,Dohazari,Dohazari,22.0204980278439,92.1014277681473,interpolate
N1,302.237,Box Culvert,LRP298a,LOHAGORA L.S BOX CULVERT,3.0,A,100665,Dhaka (Jatrabari)-Comilla (Mainamati)-Chittagong-Teknaf Road,302.237,12.2,1994.0,1.0,Chittagong,Chittagong,Dohazari,Dohazari,22.0078200503225,92.0927765812903,interpolate
N1,302.729,Box Culvert,LRP299a,DIGIRPARK BOX CULVERT,12.6,A,100667,Dhaka (Jatrabari)-Comilla (Mainamati)-Chittagong-Teknaf Road,302.729,11.6,1993.0,3.0,Chittagong,Chittagong,Dohazari,Dohazari,22.0041726139784,92.0905686346236,interpolate
N1,303.237,Box Culvert,LRP299c,DIGIRPAR BOX CULVERT,6.2,A,100669,Dhaka (Jatrabari)-Comilla (Mainamati)-Chittagong-Teknaf Road,303.237,12.2,1993.0,2.0,Chittagong,Chittagong,Dohazari,Dohazari,22.00042964,92.0883193766666,interpolate
N1,303.782,Box Culvert,LRP300a,ZADUNAGOR FILLING BOX CULVERT,3.0,A,100670,Dhaka (Jatrabari)-Comilla (Mainamati)-Chittagong-Teknaf Road,303.782,12.2,1992.0,1.0,Chittagong,Chittagong,Dohazari,Dohazari,21.9958359641681,92.0874589126142,interpolate
N1,303.793,Box Culvert,LRP300b,ZADUNAPUR SHAPIR FILLING STATION -(2) BOX CULVERT,12.4,A,100673,Dhaka (Jatrabari)-Comilla (Mainamati)-Chittagong-Teknaf Road,303.793,12.2,1992.0,4.0,Chittagong,Chittagong,Dohazari,Dohazari,21.9957410021937,92.0874460645338,interpolate
N1,304.217,PC Girder Bridge,LRP300d,Khasmahal Bridge,58.5,A,121125,Dhaka (Jatrabari)-Comilla (Mainamati)-Chittagong-Teknaf Road,304.217,,,,Chittagong,Chittagong,Dohazari,Dohazari,21.9922334387096,92.0863582073732,interpolate
N1,304.217,PC Girder Bridge,LRP300d,KHASMOHAL ADUNAICR PC GIDER BRIDGE,58.8,A,100675,Dhaka (Jatrabari)-Comilla (Mainamati)-Chittagong-Teknaf Road,304.217,11.6,1987.0,2.0,Chittagong,Chittagong,Dohazari,Dohazari,21.9922334387096,92.0863582073732,interpolate
N1,304.449,Box Culvert,LRP301a,ZADUNAGOR BUS STATION BOX CULVERT,14.2,A,100677,Dhaka (Jatrabari)-Comilla (Mainamati)-Chittagong-Teknaf Road,304.449,12.5,1986.0,3.0,Chittagong,Chittagong,Dohazari,Dohazari,21.990280244375,92.08568596625,interpolate
N1,304.857,PC Girder Bridge,LRP301b,Aadunagor bridge,24.2,A,100679,Dhaka (Jatrabari)-Comilla (Mainamati)-Chittagong-Teknaf Road,304.857,10.0,1992.0,1.0,Chittagong,Chittagong,Dohazari,Dohazari,21.9870408741379,92.0839943655172,interpolate
N1,305.527,PC Girder Bridge,LRP302a,HATIAR PULL PC GIDER BRIDGE,22.5,A,100698,Dhaka (Jatrabari)-Comilla (Mainamati)-Chittagong-Teknaf Road,305.527,10.0,1992.0,1.0,Chittagong,Chittagong,Dohazari,Dohazari,21.9819040437735,92.080773326415,interpolate
N1,305.794,Box Culvert,LRP302c,HATIAR PULL BOX CULVERT,18.7,A,100699,Dhaka (Jatrabari)-Comilla (Mainamati)-Chittagong-Teknaf Road,305.794,11.6,1991.0,4.0,Chittagong,Chittagong,Dohazari,Dohazari,21.9804623633858,92.0788716271653,interpolate
N1,306.139,Box Culvert,LRP302e,SHIX DAR PARA BOX CULVERT,3.5,A,100712,Dhaka (Jatrabari)-Comilla (Mainamati)-Chittagong-Teknaf Road,306.139,12.7,1992.0,1.0,Chittagong,Chittagong,Dohazari,Dohazari,21.979298574269,92.0758492263157,interpolate
N1,307.229,Box Culvert,LRP303a,MUSKAMPANI PARA BOX CULVERT,2.5,A,100719,Dhaka (Jatrabari)-Comilla (Mainamati)-Chittagong-Teknaf Road,307.229,12.2,1989.0,1.0,Chittagong,Chittagong,Dohazari,Dohazari,21.9738684029498,92.0683204789577,interpolate
N1,307.981,Box Culvert,LRP304b,AODU NAGOR (2) BOX CULVERT,1.5,A,100713,Dhaka (Jatrabari)-Comilla (Mainamati)-Chittagong-Teknaf Road,307.981,12.1,1982.0,1.0,Chittagong,Chittagong,Dohazari,Dohazari,21.9689581196808,92.0641501117021,interpolate
N1,308.652,RCC Girder Bridge,LRP305a,Rataykul Bridge,22.4,A,121133,Dhaka (Jatrabari)-Comilla (Mainamati)-Chittagong-Teknaf Road,308.652,,,,Chittagong,Chittagong,Dohazari,Dohazari,21.9622138572549,92.0633168764705,interpolate
N1,308.652,PC Girder Bridge,LRP305a,RATAR KUL- SONTI BRIDGE,22.4,A,100715,Dhaka (Jatrabari)-Comilla (Mainamati)-Chittagong-Teknaf Road,308.652,10.0,1986.0,1.0,Chittagong,Chittagong,Dohazari,Dohazari,21.9622138572549,92.0633168764705,interpolate
N1,309.038,Box Culvert,LRP305c,BONPUKR PARA BOX CULVERT,8.2,A,100697,Dhaka (Jatrabari)-Comilla (Mainamati)-Chittagong-Teknaf Road,309.038,12.7,1992.0,2.0,Chittagong,Chittagong,Dohazari,Dohazari,21.9592401112903,92.0652791298387,interpolate
N1,309.355,Box Culvert,LRP306a,BON PUKUL PARA BOX CULVERT,3.0,A,100695,Dhaka (Jatrabari)-Comilla (Mainamati)-Chittagong-Teknaf Road,309.355,12.75,1987.0,1.0,Chittagong,Chittagong,Dohazari,Dohazari,21.9580321636363,92.0663932818182,interpolate
N1,309.971,RCC Girder Bridge,LRP306b,SANTI RCC GIDER BRIDGE,22.4,A,100694,Dhaka (Jatrabari)-Comilla (Mainamati)-Chittagong-Teknaf Road,309.971,10.0,1986.0,1.0,Chittagong,Chittagong,Dohazari,Dohazari,21.9520795406909,92.0678138084453,interpolate
N1,310.723,Box Culvert,LRP307a,SANTI BOX CULVERT,1.4,A,100693,Dhaka (Jatrabari)-Comilla (Mainamati)-Chittagong-Teknaf Road,310.723,12.2,1992.0,1.0,Chittagong,Chittagong,Dohazari,Dohazari,21.9453993720173,92.0669286609544,interpolate
N1,311.886,Box Culvert,LRP308a,BRICK FIELD BOX CULVERT,4.5,A,100691,Dhaka (Jatrabari)-Comilla (Mainamati)-Chittagong-Teknaf Road,311.886,11.7,1993.0,1.0,Chittagong,Chittagong,Dohazari,Dohazari,21.9360290154471,92.0625427235772,interpolate
N1,312.138,Box Culvert,LRP308b,BACK FILD BOX CULVERT,9.3,A,100690,Dhaka (Jatrabari)-Comilla (Mainamati)-Chittagong-Teknaf Road,312.138,11.6,1992.0,2.0,Chittagong,Chittagong,Dohazari,Dohazari,21.9339454415019,92.0616661541501,interpolate
N1,312.354,Box Culvert,LRP309a,AZIZNAGOR FOREST BOX CULVERT,4.5,A,100689,Dhaka (Jatrabari)-Comilla (Mainamati)-Chittagong-Teknaf Road,312.354,11.7,1994.0,1.0,Chittagong,Chittagong,Dohazari,Dohazari,21.9323086726114,92.0608009579617,interpolate
N1,312.609,Box Culvert,LRP309b,AZIZ NOGOR FOREST BOX CULVERT,4.7,A,100688,Dhaka (Jatrabari)-Comilla (Mainamati)-Chittagong-Teknaf Road,312.609,11.7,1986.0,1.0,Chittagong,Chittagong,Dohazari,Dohazari,21.93038125,92.0596840375,interpolate
N1,313.947,Box Culvert,LRP310a,AZIZNAGOR BOX CULVERT,2.0,A,100687,Dhaka (Jatrabari)-Comilla (Mainamati)-Chittagong-Teknaf Road,313.947,12.2,1992.0,1.0,Chittagong,Chittagong,Dohazari,Dohazari,21.9179119605128,92.0597362988034,interpolate
N1,314.144,Box Culvert,LRP310b,AZIZ NOGAR BOX CULVERT,3.0,A,100686,Dhaka (Jatrabari)-Comilla (Mainamati)-Chittagong-Teknaf Road,314.144,12.27,1993.0,1.0,Chittagong,Chittagong,Dohazari,Dohazari,21.9167591663366,92.0599899313531,interpolate
N1,314.502,Box Culvert,LRP311a,AZIZ NAGOR 1,4.0,A,114960,Dhaka (Jatrabari)-Comilla (Mainamati)-Chittagong-Teknaf Road,314.502,12.1,1994.0,1.0,Chittagong,Chittagong,Dohazari,Dohazari,21.9140727206278,92.0605472089686,interpolate
N1,315.009,Box Culvert,LRP311b,AZIZ NAGOR 2,9.2,A,114961,Dhaka (Jatrabari)-Comilla (Mainamati)-Chittagong-Teknaf Road,315.009,15.1,1983.0,2.0,Chittagong,Chittagong,Dohazari,Dohazari,21.909622912133,92.0605661266144,interpolate
N1,317.001,Box Culvert,LRP313b,HARBHANG CHOR,13.64,A,101238,Dhaka (Jatrabari)-Comilla (Mainamati)-Chittagong-Teknaf Road,317.001,15.1,1989.0,3.0,Comilla,Noakhali,Feni,Feni-1,21.8910236519337,92.0597010756906,interpolate
N1,318.11,Box Culvert,LRP314a,GHOIL MARA BOX CULVERT,9.3,A,100684,Dhaka (Jatrabari)-Comilla (Mainamati)-Chittagong-Teknaf Road,318.11,15.0,1989.0,2.0,Chittagong,Chittagong,Dohazari,Dohazari,21.8812215213685,92.0590015447779,interpolate
N1,318.796,Box Culvert,LRP315a,HARBANG,3.0,A,100682,Dhaka (Jatrabari)-Comilla (Mainamati)-Chittagong-Teknaf Road,318.796,12.2,1989.0,1.0,Chittagong,Chittagong,Dohazari,Dohazari,21.8751197401574,92.0591098413385,interpolate
N1,320.189,Box Culvert,LRP316a,HARBANG,3.0,A,100681,Dhaka (Jatrabari)-Comilla (Mainamati)-Chittagong-Teknaf Road,320.189,12.3,1982.0,1.0,Chittagong,Chittagong,Dohazari,Dohazari,21.8628351415656,92.0594848712238,interpolate
N1,320.513,PC Girder Bridge,LRP317a,HARBANGCHORA,56.4,A,100680,Dhaka (Jatrabari)-Comilla (Mainamati)-Chittagong-Teknaf Road,320.513,11.7,1995.0,2.0,Chittagong,Chittagong,Dohazari,Dohazari,21.8599725797297,92.0601907085585,interpolate
N1,321.305,Box Culvert,LRP318a,ALIPUR BOX CULVERT,14.3,A,100403,Dhaka (Jatrabari)-Comilla (Mainamati)-Chittagong-Teknaf Road,321.305,15.05,1992.0,3.0,Chittagong,Chittagong,Dohazari,Dohazari,21.8529287900552,92.0609576198894,interpolate
N1,321.536,Box Culvert,LRP318b,HARBANG,2.1,A,114230,Dhaka (Jatrabari)-Comilla (Mainamati)-Chittagong-Teknaf Road,321.536,12.2,1974.0,1.0,Chittagong,Chittagong,Dohazari,Dohazari,21.8508595323144,92.0609491344978,interpolate
N1,322.5,Box Culvert,LRP319a,HAR BAG BOX CULVERT,4.5,A,100404,Dhaka (Jatrabari)-Comilla (Mainamati)-Chittagong-Teknaf Road,322.5,12.2,1992.0,1.0,Chittagong,Chittagong,Dohazari,Dohazari,21.8429700741784,92.0635984638497,interpolate
N1,322.823,Box Culvert,LRP319b,HAR BAG BOX CULVERT,3.0,A,100406,Dhaka (Jatrabari)-Comilla (Mainamati)-Chittagong-Teknaf Road,322.823,12.25,1992.0,1.0,Chittagong,Chittagong,Cox's Bazar,Chakoria,21.8403935683229,92.0649325472049,interpolate
N1,323.619,Box Culvert,LRP320a,ATKOTA,15.8,A,114232,Dhaka (Jatrabari)-Comilla (Mainamati)-Chittagong-Teknaf Road,323.619,12.2,1995.0,3.0,Chittagong,Chittagong,Cox's Bazar,Chakoria,21.8341033152866,92.0682735910828,interpolate
N1,324.331,Box Culvert,LRP321a,AKOTA BAZAR BOX CULVERT,7.3,A,100411,Dhaka (Jatrabari)-Comilla (Mainamati)-Chittagong-Teknaf Road,324.331,12.3,1991.0,2.0,Chittagong,Chittagong,Cox's Bazar,Chakoria,21.8280258214285,92.0713035547619,interpolate
N1,324.607,RCC Girder Bridge,LRP321b,BODOI TOLA RCC GIDER BRIDGE,46.0,A,100409,Dhaka (Jatrabari)-Comilla (Mainamati)-Chittagong-Teknaf Road,324.607,11.5,1992.0,3.0,Chittagong,Chittagong,Cox's Bazar,Chakoria,21.8257831806122,92.0723466282313,interpolate
N1,325.153,Box Culvert,LRP321d,BODAITALI BOX CULVERT,12.4,A,100413,Dhaka (Jatrabari)-Comilla (Mainamati)-Chittagong-Teknaf Road,325.153,12.8,1992.0,3.0,Chittagong,Chittagong,Cox's Bazar,Chakoria,21.8211428750483,92.0740201388781,interpolate
N1,325.49,Box Culvert,LRP322a,BODOITOLI BOX CULVERT,14.0,A,100415,Dhaka (Jatrabari)-Comilla (Mainamati)-Chittagong-Teknaf Road,325.49,11.6,1992.0,3.0,Chittagong,Chittagong,Cox's Bazar,Chakoria,21.8181692602209,92.0739442353591,interpolate
N1,327.312,Box Culvert,LRP323b,BANIYAR CHORA,14.0,A,100417,Dhaka (Jatrabari)-Comilla (Mainamati)-Chittagong-Teknaf Road,327.312,11.6,1998.0,3.0,Chittagong,Chittagong,Cox's Bazar,Chakoria,21.8034238025641,92.0772322128205,interpolate
N1,329.084,Box Culvert,LRP325a,NOL BELA-1 BOX CULVERT,20.6,A,100416,Dhaka (Jatrabari)-Comilla (Mainamati)-Chittagong-Teknaf Road,329.084,12.2,1992.0,4.0,Chittagong,Chittagong,Cox's Bazar,Chakoria,21.787854008387,92.0788540064516,interpolate
N1,329.181,Box Culvert,LRP325c,NOL BELA BOX CULVERT,21.0,A,100418,Dhaka (Jatrabari)-Comilla (Mainamati)-Chittagong-Teknaf Road,329.181,12.2,1998.0,4.0,Chittagong,Chittagong,Cox's Bazar,Chakoria,21.786997484,92.0789493159999,interpolate
N1,330.931,Box Culvert,LRP327a,DIDDA BAZAR BOX CULVERT,15.7,A,100421,Dhaka (Jatrabari)-Comilla (Mainamati)-Chittagong-Teknaf Road,330.931,11.5,1992.0,3.0,Chittagong,Chittagong,Cox's Bazar,Chakoria,21.7735339222222,92.0839144733333,interpolate
N1,335.38,Box Culvert,LRP332a,KUMARIKOOL BOX CULVERT,14.0,A,100423,Dhaka (Jatrabari)-Comilla (Mainamati)-Chittagong-Teknaf Road,335.38,13.8,1998.0,3.0,Chittagong,Chittagong,Cox's Bazar,Chakoria,21.7385629191489,92.0831876319149,interpolate
N1,336.054,Box Culvert,LRP332b,PASIYAKALI BOX CULVERT,5.2,A,100425,Dhaka (Jatrabari)-Comilla (Mainamati)-Chittagong-Teknaf Road,336.054,12.2,1999.0,2.0,Chittagong,Chittagong,Cox's Bazar,Chakoria,21.7326068595588,92.0837488330882,interpolate
N1,336.237,RCC Girder Bridge,LRP332c,PASIYAKALI (2),38.8,A,100437,Dhaka (Jatrabari)-Comilla (Mainamati)-Chittagong-Teknaf Road,336.237,11.6,1998.0,2.0,Chittagong,Chittagong,Cox's Bazar,Chakoria,21.7309878314917,92.0838156441988,interpolate
N1,337.019,Box Culvert,LRP333a,HASIRUGIGI,12.6,A,100405,Dhaka (Jatrabari)-Comilla (Mainamati)-Chittagong-Teknaf Road,337.019,11.6,1999.0,3.0,Chittagong,Chittagong,Cox's Bazar,Chakoria,21.7240739341074,92.083544148476,interpolate
N1,338.859,Box Culvert,LRP335a,CHOHAJANYA (1),12.8,A,100407,Dhaka (Jatrabari)-Comilla (Mainamati)-Chittagong-Teknaf Road,338.859,11.6,1999.0,3.0,Chittagong,Chittagong,Cox's Bazar,Chakoria,21.7092513759013,92.0806750603415,interpolate
N1,339.648,Box Culvert,LRP336a,CHOHAJANIYA (2),9.3,A,100408,Dhaka (Jatrabari)-Comilla (Mainamati)-Chittagong-Teknaf Road,339.648,11.6,1999.0,2.0,Chittagong,Chittagong,Cox's Bazar,Chakoria,21.7028300370967,92.0786456251612,interpolate
N1,342.77,RCC Girder Bridge,LRP339a,JASJARI BRIDGE,59.6,A,100410,Dhaka (Jatrabari)-Comilla (Mainamati)-Chittagong-Teknaf Road,342.77,11.6,1999.0,4.0,Chittagong,Chittagong,Cox's Bazar,Chakoria,21.676279289928,92.0768074748201,interpolate
N1,343.243,Box Culvert,LRP339c,DULAHAJARA (SAFARI PARK),14.0,A,100412,Dhaka (Jatrabari)-Comilla (Mainamati)-Chittagong-Teknaf Road,343.243,15.1,1992.0,3.0,Chittagong,Chittagong,Cox's Bazar,Chakoria,21.6721049602836,92.0763992531915,interpolate
N1,344.209,Box Culvert,LRP340a,DULAHAJARA CULVERT,3.5,A,101050,Dhaka (Jatrabari)-Comilla (Mainamati)-Chittagong-Teknaf Road,344.209,12.2,1992.0,1.0,Chittagong,Chittagong,Cox's Bazar,Chakoria,21.6629404415143,92.075071645953,interpolate
N1,344.531,PC Girder Bridge,LRP341a,DULAHAJAR BRIDGE,54.4,A,100426,Dhaka (Jatrabari)-Comilla (Mainamati)-Chittagong-Teknaf Road,344.531,11.6,1992.0,2.0,Chittagong,Chittagong,Cox's Bazar,Chakoria,21.6600543017045,92.0751025664772,interpolate
N1,345.911,Box Culvert,LRP342c,PAGOLARIBIL,4.5,A,100424,Dhaka (Jatrabari)-Comilla (Mainamati)-Chittagong-Teknaf Road,345.911,12.2,1993.0,1.0,Chittagong,Chittagong,Cox's Bazar,Chakoria,21.6480847609561,92.0733292227091,interpolate
N1,349.759,RCC Girder Bridge,LRP346a,Khutakhali Bazar Bridge,44.55,A,120376,Dhaka (Jatrabari)-Comilla (Mainamati)-Chittagong-Teknaf Road,349.759,,,,Chittagong,Chittagong,Cox's Bazar,Cox's Bazar-1,21.618376660401,92.0691713375939,interpolate
N1,350.674,Box Culvert,LRP347a,FULCHARI (NEWPARA),7.0,A,100428,Dhaka (Jatrabari)-Comilla (Mainamati)-Chittagong-Teknaf Road,350.674,12.8,1993.0,2.0,Chittagong,Chittagong,Cox's Bazar,Chakoria,21.6065189670012,92.0623070695106,interpolate
N1,350.99,Box Culvert,LRP347b,FULCHARI (NEWPARA),5.2,A,100429,Dhaka (Jatrabari)-Comilla (Mainamati)-Chittagong-Teknaf Road,350.99,12.2,1993.0,2.0,Chittagong,Chittagong,Cox's Bazar,Chakoria,21.6051753127979,92.0621198087829,interpolate
N1,351.628,Box Culvert,LRP348a,FULCHARI CULVERT,9.3,A,100431,Dhaka (Jatrabari)-Comilla (Mainamati)-Chittagong-Teknaf Road,351.628,12.75,1993.0,2.0,Chittagong,Chittagong,Cox's Bazar,Chakoria,21.5985935301507,92.061801241206,interpolate
N1,352.064,Box Culvert,LRP348b,FULCHARI BAZAR,14.0,A,100433,Dhaka (Jatrabari)-Comilla (Mainamati)-Chittagong-Teknaf Road,352.064,12.7,1993.0,3.0,Chittagong,Chittagong,Cox's Bazar,Chakoria,21.5960736973421,92.0614095408637,interpolate
N1,352.641,Box Culvert,LRP349a,NAPITE KHALI CULVERT,1.4,A,100435,Dhaka (Jatrabari)-Comilla (Mainamati)-Chittagong-Teknaf Road,352.641,12.0,1993.0,1.0,Chittagong,Chittagong,Cox's Bazar,Chakoria,21.5894309740196,92.0630313509804,interpolate
N1,353.694,Box Culvert,LRP350a,EAST NAPITL KHAL BOX CULVERT,2.5,A,100432,Dhaka (Jatrabari)-Comilla (Mainamati)-Chittagong-Teknaf Road,353.694,12.2,1981.0,1.0,Chittagong,Chittagong,Cox's Bazar,Chakoria,21.5830741250341,92.0657158465116,interpolate
N1,354.739,Box Culvert,LRP351a,NAEK KHALI BOX CULVERT,12.4,A,100434,Dhaka (Jatrabari)-Comilla (Mainamati)-Chittagong-Teknaf Road,354.739,12.7,1986.0,3.0,Chittagong,Chittagong,Cox's Bazar,Chakoria,21.5744075162901,92.0707446712247,interpolate
N1,356.261,Box Culvert,LRP352a,KHODIA BARI PRIMARY BOX CULVERT,9.5,A,100436,Dhaka (Jatrabari)-Comilla (Mainamati)-Chittagong-Teknaf Road,356.261,12.2,1993.0,3.0,Chittagong,Chittagong,Cox's Bazar,Cox's Bazar-1,21.5623201688888,92.0698139251851,interpolate
N1,356.517,Box Culvert,LRP353a,ISLAMABAD KHODIABARI BOX CULVERT,4.8,A,100438,Dhaka (Jatrabari)-Comilla (Mainamati)-Chittagong-Teknaf Road,356.517,12.2,1993.0,1.0,Chittagong,Chittagong,Cox's Bazar,Cox's Bazar-1,21.5603042595174,92.0691476,interpolate
N1,356.631,Box Culvert,LRP353b,ISLAMABAD KHODIA BARI BOX CULVERT,7.0,A,100440,Dhaka (Jatrabari)-Comilla (Mainamati)-Chittagong-Teknaf Road,356.631,12.2,1993.0,2.0,Chittagong,Chittagong,Cox's Bazar,Cox's Bazar-1,21.5594892512064,92.0689481,interpolate
N1,357.264,PC Girder Bridge,LRP354a,Eidgaon Bazar Bridge,46.0,A,120377,Dhaka (Jatrabari)-Comilla (Mainamati)-Chittagong-Teknaf Road,357.264,,,,Chittagong,Chittagong,Cox's Bazar,Cox's Bazar-1,21.5554256122448,92.0679503244898,interpolate
N1,357.264,PC Girder Bridge,LRP354a,EIDGAON BAZAR PC GIDER BRIDGE,46.0,A,100443,Dhaka (Jatrabari)-Comilla (Mainamati)-Chittagong-Teknaf Road,357.264,11.5,1993.0,2.0,Chittagong,Chittagong,Cox's Bazar,Cox's Bazar-1,21.5554256122448,92.0679503244898,interpolate
N1,358.03,PC Girder Bridge,LRP354d,Goro Bazar Bridge,44.63,A,120378,Dhaka (Jatrabari)-Comilla (Mainamati)-Chittagong-Teknaf Road,358.03,,,,Chittagong,Chittagong,Cox's Bazar,Cox's Bazar-1,21.5470666065573,92.0668953754098,interpolate
N1,360.345,Box Culvert,LRP357a,SHAT GOREA PARA BOX CULVERT,14.0,A,100446,Dhaka (Jatrabari)-Comilla (Mainamati)-Chittagong-Teknaf Road,360.345,12.7,1993.0,3.0,Chittagong,Chittagong,Cox's Bazar,Cox's Bazar-1,21.5255297395348,92.0653252244186,interpolate
N1,360.551,Box Culvert,LRP357c,KALIRCHARA BOX CULVERT,8.0,A,100448,Dhaka (Jatrabari)-Comilla (Mainamati)-Chittagong-Teknaf Road,360.551,12.0,1999.0,2.0,Chittagong,Chittagong,Cox's Bazar,Cox's Bazar-1,21.5237332279069,92.0655747598837,interpolate
N1,360.89,Box Culvert,LRP357d,KALIRCHARA BAZAR BOX CULVERT,15.4,A,100450,Dhaka (Jatrabari)-Comilla (Mainamati)-Chittagong-Teknaf Road,360.89,11.5,1993.0,3.0,Chittagong,Chittagong,Cox's Bazar,Cox's Bazar-1,21.5207709407407,92.0661440629629,interpolate
N1,361.043,Box Culvert,LRP357f,KALIRCHAR,5.0,A,114229,Dhaka (Jatrabari)-Comilla (Mainamati)-Chittagong-Teknaf Road,361.043,12.1,1993.0,1.0,Chittagong,Chittagong,Cox's Bazar,Cox's Bazar-1,21.5195088091891,92.0666746302702,interpolate
N1,361.751,Box Culvert,LRP358a,RASHIDNAGAR,3.0,A,100439,Dhaka (Jatrabari)-Comilla (Mainamati)-Chittagong-Teknaf Road,361.751,12.2,1993.0,1.0,Chittagong,Chittagong,Cox's Bazar,Cox's Bazar-1,21.5137419731132,92.069340890566,interpolate
N1,362.168,Box Culvert,LRP358b,ROSHIDNAGAR CULVERT,2.5,A,100441,Dhaka (Jatrabari)-Comilla (Mainamati)-Chittagong-Teknaf Road,362.168,12.3,1993.0,1.0,Chittagong,Chittagong,Cox's Bazar,Cox's Bazar-1,21.5104396976562,92.0708606554687,interpolate
N1,362.691,Box Culvert,LRP359a,DOLERCHARA CULVERT,7.5,A,101044,Dhaka (Jatrabari)-Comilla (Mainamati)-Chittagong-Teknaf Road,362.691,11.9,1994.0,2.0,Chittagong,Chittagong,Cox's Bazar,Cox's Bazar-1,21.5065069274647,92.0733026419014,interpolate
N1,362.889,Box Culvert,LRP359b,DOLERCHARA CULVERT,12.4,A,100444,Dhaka (Jatrabari)-Comilla (Mainamati)-Chittagong-Teknaf Road,362.889,11.8,1991.0,3.0,Chittagong,Chittagong,Cox's Bazar,Cox's Bazar-1,21.5051319429577,92.0744452552816,interpolate
N1,364.056,Box Culvert,LRP360a,ROSHIDNAGAR (2),14.0,A,100445,Dhaka (Jatrabari)-Comilla (Mainamati)-Chittagong-Teknaf Road,364.056,15.1,1978.0,3.0,Chittagong,Chittagong,Cox's Bazar,Cox's Bazar-1,21.4957534922651,92.0776785856353,interpolate
N1,364.184,Box Culvert,LRP360c,"ROSHIDNAGAR U,R CULVERT",14.1,A,100447,Dhaka (Jatrabari)-Comilla (Mainamati)-Chittagong-Teknaf Road,364.184,15.1,1993.0,3.0,Chittagong,Chittagong,Cox's Bazar,Cox's Bazar-1,21.4948695143646,92.0783346952486,interpolate
N1,366.98,Box Culvert,LRP363b,JOARIANALA CULVERT,7.2,A,100449,Dhaka (Jatrabari)-Comilla (Mainamati)-Chittagong-Teknaf Road,366.98,12.2,1993.0,2.0,Chittagong,Chittagong,Cox's Bazar,Cox's Bazar-1,21.4782130684357,92.0947151779329,interpolate
N1,367.362,Box Culvert,LRP364a,JOARIANALA,14.0,A,114228,Dhaka (Jatrabari)-Comilla (Mainamati)-Chittagong-Teknaf Road,367.362,11.6,1993.0,3.0,Chittagong,Chittagong,Cox's Bazar,Cox's Bazar-1,21.4755164496,92.0967866511999,interpolate
N1,367.6,Box Culvert,LRP364c,JORIANALA,3.0,A,114231,Dhaka (Jatrabari)-Comilla (Mainamati)-Chittagong-Teknaf Road,367.6,12.2,1993.0,1.0,Chittagong,Chittagong,Cox's Bazar,Cox's Bazar-1,21.4738446327586,92.0980125862068,interpolate
N1,368.129,PC Girder Bridge,LRP364d,JOARIANALA BAZAR PC GIDER BRIDGE(L),57.6,A,100451,Dhaka (Jatrabari)-Comilla (Mainamati)-Chittagong-Teknaf Road,368.129,11.6,1993.0,3.0,Chittagong,Chittagong,Cox's Bazar,Cox's Bazar-1,21.470055530337,92.1006402232209,interpolate
N1,368.129,PC Girder Bridge,LRP364d,Joarianala Bazar Bridge,57.65,A,120379,Dhaka (Jatrabari)-Comilla (Mainamati)-Chittagong-Teknaf Road,368.129,,,,Chittagong,Chittagong,Cox's Bazar,Cox's Bazar-1,21.470055530337,92.1006402232209,interpolate
N1,368.129,PC Girder Bridge,LRP364d,JOARIANALA BAZAR(R),57.6,A,101037,Dhaka (Jatrabari)-Comilla (Mainamati)-Chittagong-Teknaf Road,368.129,11.6,1993.0,3.0,Chittagong,Chittagong,Cox's Bazar,Cox's Bazar-1,21.470055530337,92.1006402232209,interpolate
N1,370.799,Box Culvert,LRP367a,MITA CHARI BOX CULVERT,9.2,A,100453,Dhaka (Jatrabari)-Comilla (Mainamati)-Chittagong-Teknaf Road,370.799,14.5,1996.0,2.0,Chittagong,Chittagong,Cox's Bazar,Cox's Bazar-1,21.4505569351351,92.0994681432432,interpolate
N1,371.64,Box Culvert,LRP368a,RAMU HOSPITAL GATE,1.5,A,100454,Dhaka (Jatrabari)-Comilla (Mainamati)-Chittagong-Teknaf Road,371.64,12.2,1993.0,1.0,Chittagong,Chittagong,Cox's Bazar,Cox's Bazar-1,21.4433865625,92.1012678785714,interpolate
N1,371.848,PC Girder Bridge,LRP368c,Mitacmari Ramu Bridge,58.6,A,120382,Dhaka (Jatrabari)-Comilla (Mainamati)-Chittagong-Teknaf Road,371.848,,,,Chittagong,Chittagong,Cox's Bazar,Cox's Bazar-1,21.4418389714285,92.1007083571428,interpolate
N1,372.43,Box Culvert,LRP369a,MARULA (WEST),3.0,A,100456,Dhaka (Jatrabari)-Comilla (Mainamati)-Chittagong-Teknaf Road,372.43,12.2,1981.0,1.0,Chittagong,Chittagong,Cox's Bazar,Cox's Bazar-1,21.4372009552325,92.0983672723837,interpolate
N1,372.782,Box Culvert,LRP369b,MARULA BOX CULVERT,2.5,A,100457,Dhaka (Jatrabari)-Comilla (Mainamati)-Chittagong-Teknaf Road,372.782,12.2,1995.0,1.0,Chittagong,Chittagong,Cox's Bazar,Cox's Bazar-1,21.4342084624161,92.0972607067114,interpolate
N1,373.192,Box Culvert,LRP369c,RAMU BRAC OFFICE,7.2,A,100461,Dhaka (Jatrabari)-Comilla (Mainamati)-Chittagong-Teknaf Road,373.192,12.1,1997.0,2.0,Chittagong,Chittagong,Cox's Bazar,Cox's Bazar-1,21.4308087593886,92.0961182921397,interpolate
N1,373.424,Box Culvert,LRP370a,RAMU BY PASS MORE,3.5,A,100462,Dhaka (Jatrabari)-Comilla (Mainamati)-Chittagong-Teknaf Road,373.424,12.1,1997.0,1.0,Chittagong,Chittagong,Cox's Bazar,Cox's Bazar-1,21.4288400316455,92.0953913860759,interpolate
N1,373.598,Box Culvert,LRP370c,RAMU MOUR BOX CULVDERT,12.8,A,100463,Dhaka (Jatrabari)-Comilla (Mainamati)-Chittagong-Teknaf Road,373.598,11.5,1995.0,4.0,Chittagong,Chittagong,Cox's Bazar,Cox's Bazar-1,21.4283515971831,92.0940714267605,interpolate
N1,374.081,Box Culvert,LRP370e,ROMA CALLAGE BOX CULVERT,18.8,A,100460,Dhaka (Jatrabari)-Comilla (Mainamati)-Chittagong-Teknaf Road,374.081,11.5,1995.0,4.0,Chittagong,Chittagong,Cox's Bazar,Cox's Bazar-1,21.427895984,92.089450816,interpolate
N1,374.655,Box Culvert,LRP371a,ROMA TECHIPUL,8.2,A,100459,Dhaka (Jatrabari)-Comilla (Mainamati)-Chittagong-Teknaf Road,374.655,12.2,1995.0,2.0,Chittagong,Chittagong,Cox's Bazar,Cox's Bazar-1,21.4271063768115,92.0840258231884,interpolate
N1,375.035,Box Culvert,LRP371c,SAMBAR PUL CULVERT,7.4,A,100458,Dhaka (Jatrabari)-Comilla (Mainamati)-Chittagong-Teknaf Road,375.035,12.2,1997.0,2.0,Chittagong,Chittagong,Cox's Bazar,Cox's Bazar-1,21.4267747132812,92.0804427367187,interpolate
N1,375.416,Box Culvert,LRP372a,CHAKMARKOOL,12.4,A,114963,Dhaka (Jatrabari)-Comilla (Mainamati)-Chittagong-Teknaf Road,375.416,10.0,1995.0,2.0,Chittagong,Chittagong,Cox's Bazar,Cox's Bazar-1,21.4264716,92.0767771,interpolate
N1,376.062,Box Culvert,LRP372c,CHAKMAR KOOL BOX CULVERT,9.4,A,100464,Dhaka (Jatrabari)-Comilla (Mainamati)-Chittagong-Teknaf Road,376.062,12.4,1990.0,3.0,Chittagong,Chittagong,Cox's Bazar,Cox's Bazar-1,21.4273654498084,92.0708934808429,interpolate
N1,376.931,Box Culvert,LRP373a,KHURUTIA BOX CULVERT,2.0,A,100466,Dhaka (Jatrabari)-Comilla (Mainamati)-Chittagong-Teknaf Road,376.931,12.2,1978.0,1.0,Chittagong,Chittagong,Cox's Bazar,Cox's Bazar-1,21.4271759977099,92.0634431893129,interpolate
N1,377.189,Box Culvert,LRP373b,KHURULIA CULVERT,6.8,A,100467,Dhaka (Jatrabari)-Comilla (Mainamati)-Chittagong-Teknaf Road,377.189,11.8,1995.0,2.0,Chittagong,Chittagong,Cox's Bazar,Cox's Bazar-1,21.4273089357414,92.0610656669201,interpolate
N1,377.519,Box Culvert,LRP374a,KHURULIA SCHOOL BOX CULVERT,16.6,A,100468,Dhaka (Jatrabari)-Comilla (Mainamati)-Chittagong-Teknaf Road,377.519,11.6,1992.0,4.0,Chittagong,Chittagong,Cox's Bazar,Cox's Bazar-1,21.4278354522255,92.0579673860534,interpolate
N1,377.753,Box Culvert,LRP374c,KHURULIA SCHOOL BOX CULVERT,18.6,A,100469,Dhaka (Jatrabari)-Comilla (Mainamati)-Chittagong-Teknaf Road,377.753,11.4,1993.0,4.0,Chittagong,Chittagong,Cox's Bazar,Cox's Bazar-1,21.4280296848739,92.0557570361344,interpolate
N1,378.02,Box Culvert,LRP374e,KHURULIA CHAIRMAN PARA BOX CULVERT,7.2,A,100471,Dhaka (Jatrabari)-Comilla (Mainamati)-Chittagong-Teknaf Road,378.02,12.0,1995.0,2.0,Chittagong,Chittagong,Cox's Bazar,Cox's Bazar-1,21.4280584948275,92.0532281715517,interpolate
N1,378.492,RCC Girder Bridge,LRP375a,Sarkarpara Bridge,13.0,A,120384,Dhaka (Jatrabari)-Comilla (Mainamati)-Chittagong-Teknaf Road,378.492,,,,Chittagong,Chittagong,Cox's Bazar,Cox's Bazar-1,21.4275245,92.0486482172786,interpolate
N1,378.492,RCC Girder Bridge,LRP375a,SARKAR PARA BRIDGE,13.0,A,100473,Dhaka (Jatrabari)-Comilla (Mainamati)-Chittagong-Teknaf Road,378.492,11.6,1985.0,1.0,Chittagong,Chittagong,Cox's Bazar,Cox's Bazar-1,21.4275245,92.0486482172786,interpolate
N1,379.004,Box Culvert,LRP375c,WEST DOVGE BOX CULVERT,10.9,A,100474,Dhaka (Jatrabari)-Comilla (Mainamati)-Chittagong-Teknaf Road,379.004,11.6,1992.0,3.0,Chittagong,Chittagong,Cox's Bazar,Cox's Bazar-1,21.4294452102564,92.0443807192307,interpolate
N1,379.504,Box Culvert,LRP376a,MUKTAR KUL,9.2,A,100476,Dhaka (Jatrabari)-Comilla (Mainamati)-Chittagong-Teknaf Road,379.504,11.6,1992.0,2.0,Chittagong,Chittagong,Cox's Bazar,Cox's Bazar-1,21.4297884,92.0395945696,interpolate
N1,380.346,RCC Girder Bridge,LRP377a,BAKKHALI BRIDGE,148.5,A,101046,Dhaka (Jatrabari)-Comilla (Mainamati)-Chittagong-Teknaf Road,380.346,8.8,1989.0,7.0,Chittagong,Chittagong,Cox's Bazar,Cox's Bazar-1,21.4294033629834,92.0318887491712,interpolate
N1,380.615,Box Culvert,LRP377c,MOHURI RARA BOX,3.5,A,101033,Dhaka (Jatrabari)-Comilla (Mainamati)-Chittagong-Teknaf Road,380.615,12.1,1984.0,1.0,Chittagong,Chittagong,Cox's Bazar,Cox's Bazar-1,21.4303257834586,92.0296206984962,interpolate
N1,380.759,Box Culvert,LRP377d,RABAR DAM BOX,10.3,A,101029,Dhaka (Jatrabari)-Comilla (Mainamati)-Chittagong-Teknaf Road,380.759,11.65,1989.0,2.0,Chittagong,Chittagong,Cox's Bazar,Cox's Bazar-1,21.4301539217391,92.0283434956521,interpolate
N1,381.374,Box Culvert,LRP377f,LINK ROAD CULVERT,9.0,A,101027,Dhaka (Jatrabari)-Comilla (Mainamati)-Chittagong-Teknaf Road,381.374,11.6,1989.0,3.0,Chittagong,Chittagong,Cox's Bazar,Cox's Bazar-1,21.426498621044,92.0238834076672,interpolate
N1,383.632,Box Culvert,LRP380a,KANAR PARA,10.9,A,101010,Dhaka (Jatrabari)-Comilla (Mainamati)-Chittagong-Teknaf Road,383.632,11.5,1996.0,3.0,Chittagong,Chittagong,Cox's Bazar,Cox's Bazar-1,21.4142599314893,92.0386736859574,interpolate
N1,384.001,Box Culvert,LRP380c,SHORAR COOL,8.3,A,101006,Dhaka (Jatrabari)-Comilla (Mainamati)-Chittagong-Teknaf Road,384.001,11.5,1996.0,2.0,Chittagong,Chittagong,Cox's Bazar,Cox's Bazar-1,21.4124968430517,92.0395268517711,interpolate
N1,384.978,Box Culvert,LRP381b,SOUTH MITHACHARI,8.2,A,100993,Dhaka (Jatrabari)-Comilla (Mainamati)-Chittagong-Teknaf Road,384.978,11.5,1995.0,2.0,Chittagong,Chittagong,Cox's Bazar,Cox's Bazar-1,21.4102981858461,92.0496622239999,interpolate
N1,385.237,Slab Culvert,LRP381c,SOUTH MITTA CULVERT,1.9,A,114964,Dhaka (Jatrabari)-Comilla (Mainamati)-Chittagong-Teknaf Road,385.237,4.2,1968.0,1.0,Chittagong,Chittagong,Cox's Bazar,Cox's Bazar-1,21.4099236838827,92.0518884435897,interpolate
N1,385.614,Slab Culvert,LRP382a,SOUTH MITHACHARI,3.0,A,100990,Dhaka (Jatrabari)-Comilla (Mainamati)-Chittagong-Teknaf Road,385.614,4.3,1979.0,1.0,Chittagong,Chittagong,Cox's Bazar,Cox's Bazar-1,21.4088399161904,92.0550238095238,interpolate
N1,385.78,Slab Culvert,LRP382b,SOUTH MITHACHARI,2.8,A,100987,Dhaka (Jatrabari)-Comilla (Mainamati)-Chittagong-Teknaf Road,385.78,4.25,1978.0,1.0,Chittagong,Chittagong,Cox's Bazar,Cox's Bazar-1,21.4079574071005,92.0560124923076,interpolate
N1,386.494,Slab Culvert,LRP383a,CHALATOLI,1.6,A,101048,Dhaka (Jatrabari)-Comilla (Mainamati)-Chittagong-Teknaf Road,386.494,10.3,1952.0,1.0,Chittagong,Chittagong,Cox's Bazar,Cox's Bazar-1,21.4041499171641,92.0618387037313,interpolate
N1,386.968,Box Culvert,LRP383b,CHALIYATOLI,3.6,A,100977,Dhaka (Jatrabari)-Comilla (Mainamati)-Chittagong-Teknaf Road,386.968,11.5,1992.0,1.0,Chittagong,Chittagong,Cox's Bazar,Cox's Bazar-1,21.402009374844,92.0647406251559,interpolate
N1,387.843,Box Culvert,LRP384a,PANCHORI,8.3,A,101032,Dhaka (Jatrabari)-Comilla (Mainamati)-Chittagong-Teknaf Road,387.843,11.5,1996.0,2.0,Chittagong,Chittagong,Cox's Bazar,Cox's Bazar-1,21.3950144227586,92.0675884137931,interpolate
N1,389.282,Slab Culvert,LRP385g,PANCHARA SLAB CULVERT,1.7,A,101007,Dhaka (Jatrabari)-Comilla (Mainamati)-Chittagong-Teknaf Road,389.282,7.2,1951.0,1.0,Chittagong,Chittagong,Cox's Bazar,Cox's Bazar-1,21.3829076671052,92.0709510842105,interpolate
N1,389.538,Slab Culvert,LRP386a,PANCHORI,0.8,A,112555,Dhaka (Jatrabari)-Comilla (Mainamati)-Chittagong-Teknaf Road,389.538,7.2,1951.0,1.0,Chittagong,Chittagong,Cox's Bazar,Cox's Bazar-1,21.3808422435754,92.0709982664804,interpolate
N1,389.724,Slab Culvert,LRP386c,DALA-2 SLAB CULVERT,1.5,A,100999,Dhaka (Jatrabari)-Comilla (Mainamati)-Chittagong-Teknaf Road,389.724,8.2,1951.0,1.0,Chittagong,Chittagong,Cox's Bazar,Cox's Bazar-1,21.3793128,92.0704913857142,interpolate
N1,390.047,Slab Culvert,LRP386e,DALA SLAB CULVERT,1.5,A,100995,Dhaka (Jatrabari)-Comilla (Mainamati)-Chittagong-Teknaf Road,390.047,7.2,1951.0,1.0,Chittagong,Chittagong,Cox's Bazar,Cox's Bazar-1,21.3768882285714,92.0711223285714,interpolate
N1,390.142,Slab Culvert,LRP386f,DALA SLAB CULVERT,3.0,A,100992,Dhaka (Jatrabari)-Comilla (Mainamati)-Chittagong-Teknaf Road,390.142,7.2,1951.0,1.0,Chittagong,Chittagong,Cox's Bazar,Cox's Bazar-1,21.3762792890109,92.0717458313186,interpolate
N1,390.506,Slab Culvert,LRP387a,PANAR CHORI SLAB CULVERT,1.3,A,100986,Dhaka (Jatrabari)-Comilla (Mainamati)-Chittagong-Teknaf Road,390.506,8.2,1951.0,1.0,Chittagong,Chittagong,Cox's Bazar,Cox's Bazar-1,21.3745372352601,92.0740615132948,interpolate
N1,390.595,Slab Culvert,LRP387b,PANAR HORA SLAB CULVERT,1.3,A,100984,Dhaka (Jatrabari)-Comilla (Mainamati)-Chittagong-Teknaf Road,390.595,8.2,1951.0,1.0,Chittagong,Chittagong,Cox's Bazar,Cox's Bazar-1,21.3743800190751,92.0748617416184,interpolate
N1,391.255,Box Culvert,LRP387e,TULA BAGAN BOX CULVERT,1.3,A,100976,Dhaka (Jatrabari)-Comilla (Mainamati)-Chittagong-Teknaf Road,391.255,9.2,1951.0,1.0,Chittagong,Chittagong,Cox's Bazar,Cox's Bazar-1,21.3706902708737,92.0790672786407,interpolate
N1,391.373,Slab Culvert,LRP387f,TELA BAGAN SLAB CULVERT,1.3,A,101053,Dhaka (Jatrabari)-Comilla (Mainamati)-Chittagong-Teknaf Road,391.373,8.2,1951.0,1.0,Chittagong,Chittagong,Cox's Bazar,Cox's Bazar-1,21.3697436389312,92.0796434824427,interpolate
N1,391.521,Slab Culvert,LRP388a,TULA BAGAN.,1.3,A,101077,Dhaka (Jatrabari)-Comilla (Mainamati)-Chittagong-Teknaf Road,391.521,8.2,1951.0,1.0,Chittagong,Chittagong,Cox's Bazar,Cox's Bazar-1,21.3686452190839,92.0800514992366,interpolate
N1,392.526,Box Culvert,LRP389a,TULA BAGAN,2.5,A,101091,Dhaka (Jatrabari)-Comilla (Mainamati)-Chittagong-Teknaf Road,392.526,11.5,1998.0,1.0,Chittagong,Chittagong,Cox's Bazar,Cox's Bazar-1,21.3604702002336,92.0801526114486,interpolate
N1,392.619,Slab Culvert,LRP389b,NORTH-CONIAPARA,1.3,A,101084,Dhaka (Jatrabari)-Comilla (Mainamati)-Chittagong-Teknaf Road,392.619,8.2,1951.0,1.0,Chittagong,Chittagong,Cox's Bazar,Cox's Bazar-1,21.3597277864485,92.0798025359813,interpolate
N1,393.038,Box Culvert,LRP389d,NORTH CONIA PARA BOX CULVERT,4.0,A,101080,Dhaka (Jatrabari)-Comilla (Mainamati)-Chittagong-Teknaf Road,393.038,11.5,1998.0,1.0,Chittagong,Chittagong,Cox's Bazar,Cox's Bazar-1,21.3562553024,92.0790827,interpolate
N1,393.764,PC Girder Bridge,LRP390a,WEST CONIARA,21.5,A,101081,Dhaka (Jatrabari)-Comilla (Mainamati)-Chittagong-Teknaf Road,393.764,10.0,1998.0,1.0,Chittagong,Chittagong,Cox's Bazar,Cox's Bazar-1,21.3500251952038,92.0784342935251,interpolate
N1,394.681,Box Culvert,LRP391a,KHONIA POLONG,14.1,A,101083,Dhaka (Jatrabari)-Comilla (Mainamati)-Chittagong-Teknaf Road,394.681,10.3,1998.0,3.0,Chittagong,Chittagong,Cox's Bazar,Cox's Bazar-1,21.3420893171962,92.0788538753271,interpolate
N1,401.752,Box Culvert,LRP398a,SHAPUR,14.1,A,101061,Dhaka (Jatrabari)-Comilla (Mainamati)-Chittagong-Teknaf Road,401.752,11.4,2000.0,3.0,Chittagong,Chittagong,Cox's Bazar,Cox's Bazar - 2,21.2887748,92.0999549688796,interpolate
N1,402.323,Box Culvert,LRP398d,COURT BAZAR,10.3,A,101064,Dhaka (Jatrabari)-Comilla (Mainamati)-Chittagong-Teknaf Road,402.323,11.4,1998.0,2.0,Chittagong,Chittagong,Cox's Bazar,Cox's Bazar - 2,21.2837382315436,92.1005546348993,interpolate
N1,403.495,Box Culvert,LRP400a,RATNAPALANG,14.0,A,101066,Dhaka (Jatrabari)-Comilla (Mainamati)-Chittagong-Teknaf Road,403.495,11.5,1989.0,3.0,Chittagong,Chittagong,Cox's Bazar,Cox's Bazar - 2,21.2740057908634,92.1044223449799,interpolate
N1,403.509,Steel Beam & RCC Slab,LRP400b,CHADIRIKHANA,23.5,A,101067,Dhaka (Jatrabari)-Comilla (Mainamati)-Chittagong-Teknaf Road,403.509,4.3,1958.0,3.0,Chittagong,Chittagong,Cox's Bazar,Cox's Bazar - 2,21.2738921701807,92.1044785698795,interpolate
N1,403.79,Steel Beam & RCC Slab,LRP400c,CHADIRIKHANA,23.5,A,101070,Dhaka (Jatrabari)-Comilla (Mainamati)-Chittagong-Teknaf Road,403.79,4.3,1958.0,3.0,Chittagong,Chittagong,Cox's Bazar,Cox's Bazar - 2,21.271611640763,92.1056070839357,interpolate
N1,405.969,Slab Culvert,LRP402b,JADI MORA (2) CULVERT,2.4,A,101075,Dhaka (Jatrabari)-Comilla (Mainamati)-Chittagong-Teknaf Road,405.969,7.0,1958.0,1.0,Chittagong,Chittagong,Cox's Bazar,Cox's Bazar - 2,21.2586242226573,92.1207179843356,interpolate
N1,406.218,Arch Masonry,LRP402c,JADIMORA (3),17.0,A,100726,Dhaka (Jatrabari)-Comilla (Mainamati)-Chittagong-Teknaf Road,406.218,9.0,1951.0,3.0,Chittagong,Chittagong,Cox's Bazar,Cox's Bazar - 2,21.2570550964285,92.1224165035714,interpolate
N1,406.517,Slab Culvert,LRP403a,JADIMORA (1),2.4,A,100731,Dhaka (Jatrabari)-Comilla (Mainamati)-Chittagong-Teknaf Road,406.517,7.2,1951.0,1.0,Chittagong,Chittagong,Cox's Bazar,Cox's Bazar - 2,21.2552064351464,92.1243872108786,interpolate
N1,411.81,Slab Culvert,LRP408a,P. F PARA SLAB,2.0,A,100837,Dhaka (Jatrabari)-Comilla (Mainamati)-Chittagong-Teknaf Road,411.81,7.5,1958.0,1.0,Chittagong,Chittagong,Cox's Bazar,Cox's Bazar - 2,21.2308784786138,92.1607571460396,interpolate
N1,413.66,Slab Culvert,LRP410a,KATU PALLANG SLAB,2.0,A,100830,Dhaka (Jatrabari)-Comilla (Mainamati)-Chittagong-Teknaf Road,413.66,7.0,1953.0,1.0,Chittagong,Chittagong,Cox's Bazar,Cox's Bazar - 2,21.2160115861386,92.1636641564356,interpolate
N1,413.901,Slab Culvert,LRP410b,KUTUNG PALANG SLAB,1.8,A,100824,Dhaka (Jatrabari)-Comilla (Mainamati)-Chittagong-Teknaf Road,413.901,7.0,1968.0,1.0,Chittagong,Chittagong,Cox's Bazar,Cox's Bazar - 2,21.2149359632653,92.1655512030612,interpolate
N1,414.0,Slab Culvert,LRP410c,KOSUKONA,2.2,A,100821,Dhaka (Jatrabari)-Comilla (Mainamati)-Chittagong-Teknaf Road,414.0,7.0,1958.0,1.0,Chittagong,Chittagong,Cox's Bazar,Cox's Bazar - 2,21.2144308612244,92.1664067448979,interpolate
N1,415.056,Box Culvert,LRP411a,BALAKHALI TV CENTER,6.4,A,100819,Dhaka (Jatrabari)-Comilla (Mainamati)-Chittagong-Teknaf Road,415.056,11.0,1984.0,2.0,Chittagong,Chittagong,Cox's Bazar,Cox's Bazar - 2,21.2063047283582,92.1700180179104,interpolate
N1,415.296,Slab Culvert,LRP411b,BALUKHALI-2 SLAB,2.2,A,100817,Dhaka (Jatrabari)-Comilla (Mainamati)-Chittagong-Teknaf Road,415.296,11.0,1951.0,1.0,Chittagong,Chittagong,Cox's Bazar,Cox's Bazar - 2,21.2043409872865,92.1703567258064,interpolate
N1,415.574,Box Culvert,LRP412a,BALUKHALI KASTOM,3.1,A,100815,Dhaka (Jatrabari)-Comilla (Mainamati)-Chittagong-Teknaf Road,415.574,9.6,1973.0,1.0,Chittagong,Chittagong,Cox's Bazar,Cox's Bazar - 2,21.2019671732447,92.1704006677419,interpolate
N1,416.057,RCC Girder Bridge,LRP412b,BALUKHALI OLD BUS STAND,39.3,A,100812,Dhaka (Jatrabari)-Comilla (Mainamati)-Chittagong-Teknaf Road,416.057,7.35,1967.0,3.0,Chittagong,Chittagong,Cox's Bazar,Cox's Bazar - 2,21.197632418584,92.1705772646017,interpolate
N1,416.354,Box Culvert,LRP412d,BAKUHHALI KASHAMIA,3.0,A,100810,Dhaka (Jatrabari)-Comilla (Mainamati)-Chittagong-Teknaf Road,416.354,9.5,1964.0,1.0,Chittagong,Chittagong,Cox's Bazar,Cox's Bazar - 2,21.1953155305785,92.1705074661157,interpolate
N1,416.966,RCC Girder Bridge,LRP413a,Batukhali Bridge,9.4,A,120431,Dhaka (Jatrabari)-Comilla (Mainamati)-Chittagong-Teknaf Road,416.966,,,,Chittagong,Chittagong,Cox's Bazar,Cox's Bazar - 2,21.1907730988505,92.1680703199233,interpolate
N1,418.231,Box Culvert,LRP414a,GOGU GONA,1.2,A,100804,Dhaka (Jatrabari)-Comilla (Mainamati)-Chittagong-Teknaf Road,418.231,10.3,1978.0,1.0,Chittagong,Chittagong,Cox's Bazar,Cox's Bazar - 2,21.1839744314735,92.1593026449213,interpolate
N1,419.63,RCC Girder Bridge,LRP416a,Changkhali Bridge,9.4,A,120436,Dhaka (Jatrabari)-Comilla (Mainamati)-Chittagong-Teknaf Road,419.63,,,,Chittagong,Chittagong,Cox's Bazar,Cox's Bazar - 2,21.1724828063829,92.1552940329787,interpolate
N1,419.88,RCC Girder Bridge,LRP416b,Changkhali Boro Bridge,21.5,A,120456,Dhaka (Jatrabari)-Comilla (Mainamati)-Chittagong-Teknaf Road,419.88,,,,Chittagong,Chittagong,Cox's Bazar,Cox's Bazar - 2,21.1703723502057,92.1547387765432,interpolate
N1,420.18,Box Culvert,LRP416e,JAM TOLI BOX CULVERT,3.0,A,100796,Dhaka (Jatrabari)-Comilla (Mainamati)-Chittagong-Teknaf Road,420.18,9.6,1951.0,1.0,Chittagong,Chittagong,Cox's Bazar,Cox's Bazar - 2,21.168232930909,92.1531459818181,interpolate
N1,420.606,Box Culvert,LRP417b,DAIM PARA CULVERT,4.6,A,100788,Dhaka (Jatrabari)-Comilla (Mainamati)-Chittagong-Teknaf Road,420.606,9.6,1978.0,1.0,Chittagong,Chittagong,Cox's Bazar,Cox's Bazar - 2,21.16498780625,92.152190071875,interpolate
N1,421.156,Box Culvert,LRP417d,DAIM PARA CULVERT,3.0,A,100785,Dhaka (Jatrabari)-Comilla (Mainamati)-Chittagong-Teknaf Road,421.156,9.45,1951.0,1.0,Chittagong,Chittagong,Cox's Bazar,Cox's Bazar - 2,21.1602045009259,92.1525257175926,interpolate
N1,422.784,RCC Girder Bridge,LRP419a,Palong Khali Bridge,57.6,A,120465,Dhaka (Jatrabari)-Comilla (Mainamati)-Chittagong-Teknaf Road,422.784,,,,Chittagong,Chittagong,Cox's Bazar,Cox's Bazar - 2,21.1477676743494,92.1570426250929,interpolate
N1,423.804,RCC Girder Bridge,LRP420c,GIVATOLI RCC GIDER BRIDGE,3.3,A,100797,Dhaka (Jatrabari)-Comilla (Mainamati)-Chittagong-Teknaf Road,423.804,9.6,1975.0,1.0,Chittagong,Chittagong,Cox's Bazar,Cox's Bazar - 2,21.140210455058,92.1615530950248,interpolate
N1,424.075,RCC Girder Bridge,LRP420d,GIVA TOLI RCC GIDER BRIDGE,3.3,A,100799,Dhaka (Jatrabari)-Comilla (Mainamati)-Chittagong-Teknaf Road,424.075,9.6,1951.0,1.0,Chittagong,Chittagong,Cox's Bazar,Cox's Bazar - 2,21.1388871840796,92.1636379074626,interpolate
N1,424.271,Box Culvert,LRP420e,GIVA TOLI BOX CULVERT,1.2,A,100803,Dhaka (Jatrabari)-Comilla (Mainamati)-Chittagong-Teknaf Road,424.271,9.6,1951.0,1.0,Chittagong,Chittagong,Cox's Bazar,Cox's Bazar - 2,21.1380664956896,92.1651978,interpolate
N1,425.455,RCC Girder Bridge,LRP421f,ULUBANIA RCC GIDER BRIDGE,4.8,A,100809,Dhaka (Jatrabari)-Comilla (Mainamati)-Chittagong-Teknaf Road,425.455,9.6,1951.0,1.0,Chittagong,Chittagong,Cox's Bazar,Cox's Bazar - 2,21.1360412976525,92.1760569938967,interpolate
N1,425.882,RCC Girder Bridge,LRP422b,DMONIR GONA RCC GIDER BRIDGE,3.3,A,100818,Dhaka (Jatrabari)-Comilla (Mainamati)-Chittagong-Teknaf Road,425.882,9.6,1951.0,1.0,Chittagong,Chittagong,Cox's Bazar,Cox's Bazar - 2,21.1342388024291,92.179158717004,interpolate
N1,427.041,Box Culvert,LRP423c,W HIME KANG BOX CULVERT,1.2,A,100825,Dhaka (Jatrabari)-Comilla (Mainamati)-Chittagong-Teknaf Road,427.041,10.2,1951.0,1.0,Chittagong,Chittagong,Cox's Bazar,Cox's Bazar - 2,21.1290060819819,92.187903612012,interpolate
N1,427.154,Box Culvert,LRP423d,WHIKE KANG BOX CULVERT,1.2,A,100827,Dhaka (Jatrabari)-Comilla (Mainamati)-Chittagong-Teknaf Road,427.154,10.2,1970.0,1.0,Chittagong,Chittagong,Cox's Bazar,Cox's Bazar - 2,21.1283226864864,92.1886718423423,interpolate
N1,427.622,RCC Girder Bridge,LRP424a,wheke kang (1),6.4,A,100834,Dhaka (Jatrabari)-Comilla (Mainamati)-Chittagong-Teknaf Road,427.622,7.3,1978.0,1.0,Chittagong,Chittagong,Cox's Bazar,Cox's Bazar - 2,21.125103688724,92.1913674700296,interpolate
N1,427.804,RCC Girder Bridge,LRP424b,WHIKE KANG BRIDGE,3.35,A,100836,Dhaka (Jatrabari)-Comilla (Mainamati)-Chittagong-Teknaf Road,427.804,10.2,1978.0,1.0,Chittagong,Chittagong,Cox's Bazar,Cox's Bazar - 2,21.1237604940298,92.1921588880597,interpolate
N1,427.969,RCC Girder Bridge,LRP424e,HOA EX KANG BAZAE,3.2,A,100842,Dhaka (Jatrabari)-Comilla (Mainamati)-Chittagong-Teknaf Road,427.969,10.2,1984.0,1.0,Chittagong,Chittagong,Cox's Bazar,Cox's Bazar - 2,21.1225347168141,92.1929605601769,interpolate
N1,428.578,Box Culvert,LRP425a,AMTULI BOX CULVERT,3.4,A,100846,Dhaka (Jatrabari)-Comilla (Mainamati)-Chittagong-Teknaf Road,428.578,10.2,1984.0,1.0,Chittagong,Chittagong,Cox's Bazar,Cox's Bazar - 2,21.1184609383419,92.1962922290155,interpolate
N1,428.89,Slab Culvert,LRP425b,TASSI-PARA BAR,2.8,A,100789,Dhaka (Jatrabari)-Comilla (Mainamati)-Chittagong-Teknaf Road,428.89,10.2,1985.0,1.0,Chittagong,Chittagong,Cox's Bazar,Cox's Bazar - 2,21.1159743461538,92.1970744923076,interpolate
N1,429.491,Box Culvert,LRP425e,LAMBA-BIL PORA,1.2,A,100784,Dhaka (Jatrabari)-Comilla (Mainamati)-Chittagong-Teknaf Road,429.491,10.3,1967.0,1.0,Chittagong,Chittagong,Cox's Bazar,Cox's Bazar - 2,21.1118930148936,92.2005928021276,interpolate
N1,429.615,Box Culvert,LRP426a,LAMBABIL MIDDLE PARA,1.2,A,100782,Dhaka (Jatrabari)-Comilla (Mainamati)-Chittagong-Teknaf Road,429.615,10.2,1986.0,1.0,Chittagong,Chittagong,Cox's Bazar,Cox's Bazar - 2,21.1108101507936,92.2020956942857,interpolate
N1,429.719,Box Culvert,LRP426b,LAMBABIL MIDDLE,1.2,A,100863,Dhaka (Jatrabari)-Comilla (Mainamati)-Chittagong-Teknaf Road,429.719,10.2,1978.0,1.0,Chittagong,Chittagong,Cox's Bazar,Cox's Bazar - 2,21.1098838904761,92.2033796485714,interpolate
N1,429.912,Box Culvert,LRP426c,LAMBA - BIL - (1) BOX CULVERT,2.8,A,100851,Dhaka (Jatrabari)-Comilla (Mainamati)-Chittagong-Teknaf Road,429.912,10.2,1993.0,1.0,Chittagong,Chittagong,Cox's Bazar,Cox's Bazar - 2,21.108771344186,92.2048378697674,interpolate
N1,430.072,Slab Culvert,LRP426d,LAM BA BIL (2) BOX CULVERT,2.8,A,100852,Dhaka (Jatrabari)-Comilla (Mainamati)-Chittagong-Teknaf Road,430.072,10.2,1976.0,1.0,Chittagong,Chittagong,Cox's Bazar,Cox's Bazar - 2,21.1083165348837,92.2053339813953,interpolate
N1,430.287,Box Culvert,LRP426e,LAMBA BIL (3) BOX CULVERT,1.2,A,100849,Dhaka (Jatrabari)-Comilla (Mainamati)-Chittagong-Teknaf Road,430.287,10.2,1964.0,1.0,Chittagong,Chittagong,Cox's Bazar,Cox's Bazar - 2,21.1078333,92.2061073045454,interpolate
N1,430.978,RCC Girder Bridge,LRP427b,UNCHI - PRANG BRIDGE,34.2,A,100848,Dhaka (Jatrabari)-Comilla (Mainamati)-Chittagong-Teknaf Road,430.978,7.3,1976.0,3.0,Chittagong,Chittagong,Cox's Bazar,Cox's Bazar - 2,21.1020295703488,92.2079394552325,interpolate
N1,431.167,Box Culvert,LRP427d,ON SIFAPAING BOX CULVERT,3.0,A,100847,Dhaka (Jatrabari)-Comilla (Mainamati)-Chittagong-Teknaf Road,431.167,10.2,1999.0,1.0,Chittagong,Chittagong,Cox's Bazar,Cox's Bazar - 2,21.1005774145454,92.208578050909,interpolate
N1,431.398,Box Culvert,LRP427e,UNCHING OPLONG CULVERT (1),1.2,A,100844,Dhaka (Jatrabari)-Comilla (Mainamati)-Chittagong-Teknaf Road,431.398,10.2,1999.0,1.0,Chittagong,Chittagong,Cox's Bazar,Cox's Bazar - 2,21.0988710315789,92.2096579157894,interpolate
N1,431.877,Box Culvert,LRP428a,KUTUB DIA PARA (1) CULVERT,2.7,A,100843,Dhaka (Jatrabari)-Comilla (Mainamati)-Chittagong-Teknaf Road,431.877,10.2,1964.0,1.0,Chittagong,Chittagong,Cox's Bazar,Cox's Bazar - 2,21.0950312659147,92.2114600974937,interpolate
N1,431.946,Box Culvert,LRP428b,KUTUB DIA PARA CULVERT,2.7,A,100841,Dhaka (Jatrabari)-Comilla (Mainamati)-Chittagong-Teknaf Road,431.946,10.2,1966.0,1.0,Chittagong,Chittagong,Cox's Bazar,Cox's Bazar - 2,21.0944452155388,92.2116762629072,interpolate
N1,432.19,Slab Culvert,LRP428c,KUTUB - DIA PARA (3),4.2,A,100840,Dhaka (Jatrabari)-Comilla (Mainamati)-Chittagong-Teknaf Road,432.19,10.3,1993.0,1.0,Chittagong,Chittagong,Cox's Bazar,Cox's Bazar - 2,21.0923827310126,92.2123111474683,interpolate
N1,432.411,Slab Culvert,LRP428d,KANGOR PARA,2.7,A,100885,Dhaka (Jatrabari)-Comilla (Mainamati)-Chittagong-Teknaf Road,432.411,10.2,1986.0,1.0,Chittagong,Chittagong,Cox's Bazar,Cox's Bazar - 2,21.0905260238297,92.2128845902127,interpolate
N1,432.62,Box Culvert,LRP429a,KANGOR PARA MOZGID,1.2,A,100881,Dhaka (Jatrabari)-Comilla (Mainamati)-Chittagong-Teknaf Road,432.62,10.2,1976.0,1.0,Chittagong,Chittagong,Cox's Bazar,Cox's Bazar - 2,21.088867034104,92.213695567052,interpolate
N1,432.865,Slab Culvert,LRP429b,KHAN GIOR PARA (1),2.8,A,100883,Dhaka (Jatrabari)-Comilla (Mainamati)-Chittagong-Teknaf Road,432.865,10.2,1964.0,1.0,Chittagong,Chittagong,Cox's Bazar,Cox's Bazar - 2,21.0869591497109,92.2148363748555,interpolate
N1,432.924,Box Culvert,LRP429c,KHANGOR PRAMARY (2),1.2,A,100875,Dhaka (Jatrabari)-Comilla (Mainamati)-Chittagong-Teknaf Road,432.924,10.2,1984.0,1.0,Chittagong,Chittagong,Cox's Bazar,Cox's Bazar - 2,21.0864997,92.2151111,interpolate
N1,433.178,RCC Girder Bridge,LRP429d,Khan Gor Para Bridge,14.0,A,120512,Dhaka (Jatrabari)-Comilla (Mainamati)-Chittagong-Teknaf Road,433.178,,,,Chittagong,Chittagong,Cox's Bazar,Cox's Bazar - 2,21.0844125039525,92.2159198454545,interpolate
N1,433.441,Box Culvert,LRP429f,RHANCHOR PARA BOX CULVERT,1.2,A,100872,Dhaka (Jatrabari)-Comilla (Mainamati)-Chittagong-Teknaf Road,433.441,10.2,1966.0,1.0,Chittagong,Chittagong,Cox's Bazar,Cox's Bazar - 2,21.0822419459459,92.2166012177177,interpolate
N1,433.665,Box Culvert,LRP430a,KHANCHOR PARA (2),1.0,A,100871,Dhaka (Jatrabari)-Comilla (Mainamati)-Chittagong-Teknaf Road,433.665,10.2,1984.0,1.0,Chittagong,Chittagong,Cox's Bazar,Cox's Bazar - 2,21.0804429857142,92.2174040714285,interpolate
N1,433.826,Box Culvert,LRP430b,KHANCHOR PARA- BOX CULVERT,1.0,A,100870,Dhaka (Jatrabari)-Comilla (Mainamati)-Chittagong-Teknaf Road,433.826,10.2,1978.0,1.0,Chittagong,Chittagong,Cox's Bazar,Cox's Bazar - 2,21.079224345977,92.2181232950191,interpolate
N1,434.124,Slab Culvert,LRP430c,NOYA PARA (1) BOX CULVERT,3.0,A,100869,Dhaka (Jatrabari)-Comilla (Mainamati)-Chittagong-Teknaf Road,434.124,10.2,1978.0,1.0,Chittagong,Chittagong,Cox's Bazar,Cox's Bazar - 2,21.077282565,92.2199300692307,interpolate
N1,434.573,RCC Girder Bridge,LRP431a,NAYAPARA,5.8,A,100867,Dhaka (Jatrabari)-Comilla (Mainamati)-Chittagong-Teknaf Road,434.573,7.3,1974.0,1.0,Chittagong,Chittagong,Cox's Bazar,Cox's Bazar - 2,21.0741777849315,92.2222489445205,interpolate
N1,434.831,Box Culvert,LRP431b,NOYA PARA,1.3,A,100865,Dhaka (Jatrabari)-Comilla (Mainamati)-Chittagong-Teknaf Road,434.831,10.2,1962.0,1.0,Chittagong,Chittagong,Cox's Bazar,Cox's Bazar - 2,21.0724929467032,92.2235128087912,interpolate
N1,435.748,Box Culvert,LRP432a,NINA BAZAR BOX CULVERT,1.2,A,100882,Dhaka (Jatrabari)-Comilla (Mainamati)-Chittagong-Teknaf Road,435.748,10.3,1964.0,1.0,Chittagong,Chittagong,Cox's Bazar,Cox's Bazar - 2,21.0650398482758,92.2245345498084,interpolate
N1,439.579,Box Culvert,LRP435c,ALI AXBAR PARA BOX CULVERT,6.2,A,100860,Dhaka (Jatrabari)-Comilla (Mainamati)-Chittagong-Teknaf Road,439.579,11.5,1984.0,2.0,Chittagong,Chittagong,Cox's Bazar,Cox's Bazar - 2,21.0376449596296,92.2390520348148,interpolate
N1,440.724,Slab Culvert,LRP437a,NILLA BOX CULVERT (1),4.4,A,100856,Dhaka (Jatrabari)-Comilla (Mainamati)-Chittagong-Teknaf Road,440.724,10.2,1976.0,1.0,Chittagong,Chittagong,Cox's Bazar,Cox's Bazar - 2,21.0279544680791,92.2415858245762,interpolate
N1,440.977,Slab Culvert,LRP437b,NILA. BARAR BOX CULVERT,2.9,A,100855,Dhaka (Jatrabari)-Comilla (Mainamati)-Chittagong-Teknaf Road,440.977,10.2,1968.0,1.0,Chittagong,Chittagong,Cox's Bazar,Cox's Bazar - 2,21.0256598717703,92.2418041698564,interpolate
N1,441.666,Slab Culvert,LRP438a,NILA - DORGA- PARA-(1) BOX,2.8,A,100853,Dhaka (Jatrabari)-Comilla (Mainamati)-Chittagong-Teknaf Road,441.666,9.6,1962.0,1.0,Chittagong,Chittagong,Cox's Bazar,Cox's Bazar - 2,21.0198087471074,92.2428140276859,interpolate
N1,441.974,Slab Culvert,LRP438b,NILA DOGA PARA BOX CULVERT,2.8,A,100927,Dhaka (Jatrabari)-Comilla (Mainamati)-Chittagong-Teknaf Road,441.974,9.6,1974.0,1.0,Chittagong,Chittagong,Cox's Bazar,Cox's Bazar - 2,21.0173417560386,92.2438384763284,interpolate
N1,442.161,Slab Culvert,LRP438c,NAT MURA PARA BOX CULVERT,1.9,A,100931,Dhaka (Jatrabari)-Comilla (Mainamati)-Chittagong-Teknaf Road,442.161,10.2,1966.0,1.0,Chittagong,Chittagong,Cox's Bazar,Cox's Bazar - 2,21.015929034375,92.2447567,interpolate
